<?xml version="1.0" encoding="utf-8"?>
<markers><country lat="50.7086" lng="10.6348" zoom="5" name="nextbike Germany" hotline="00493069205046" domain="de" language="de" email="kundenservice@nextbike.de" timezone="Europe/Berlin" currency="EUR" country_calling_code="+49" system_operator_address="nextbike GmbH, Erich-Zeigner Allee 69-73, 04229 Leipzig" country="DE" country_name="Germany" terms="https://www.nextbike.de/de/agb/#201807" policy="https://www.nextbike.de/datenschutz/" website="https://www.nextbike.de/xx/" booked_bikes="0" set_point_bikes="1851" available_bikes="1158" capped_available_bikes="1" pricing="https://www.nextbike.de/de/preise/" ><city uid="7" lat="50.0709" lng="8.24322" zoom="12" maps_icon="" alias="wiesbaden" break="0" name="Wiesbaden" num_places="62" refresh_rate="10120" bounds='{"south_west":{"lat":49.9996,"lng":8.1789},"north_east":{"lat":50.1029,"lng":8.6859}}' booked_bikes="0" set_point_bikes="135" available_bikes="118" return_to_official_only="1" bike_types='{"15":120}' ><place uid="4728239" lat="50.080828206632" lng="8.2180899381638" name="Kurt-Schumacher-Ring (Campus Ost)" spot="1" number="5180" bikes="3" free_racks="0" terminal_type="smart_sign" bike_numbers='11593,11548,11411' bike_types='{"15":3}' place_type="0" ><bike number="11593" bike_type="15" lock_types='fork_lock' active="1" state="ok" electric_lock="1" boardcomputer="22638" /><bike number="11548" bike_type="15" lock_types='fork_lock' active="1" state="ok" electric_lock="1" boardcomputer="23194" /><bike number="11411" bike_type="15" lock_types='fork_lock' active="1" state="ok" electric_lock="1" boardcomputer="23748" /></place><place uid="4775065" lat="50.07956" lng="8.23052" name="5181 Bertramstraße (Campus)" spot="1" number="5181" bikes="2" free_racks="0" terminal_type="smart_sign" bike_numbers='11533,11524' bike_types='{"15":2}' place_type="0" ><bike number="11533" bike_type="15" lock_types='fork_lock' active="1" state="ok" electric_lock="1" boardcomputer="23108" /><bike number="11524" bike_type="15" lock_types='fork_lock' active="1" state="ok" electric_lock="1" boardcomputer="23802" /></place><place uid="4775074" lat="50.08066" lng="8.24345" name="Dern’sches Gelände" spot="1" number="5182" bikes="5" free_racks="0" terminal_type="smart_sign" bike_numbers='11591,11561,11550,11520,11504' bike_types='{"15":5}' place_type="0" ><bike number="11591" bike_type="15" lock_types='fork_lock' active="1" state="ok" electric_lock="1" boardcomputer="23011" /><bike number="11561" bike_type="15" lock_types='fork_lock' active="1" state="ok" electric_lock="1" boardcomputer="22909" /><bike number="11550" bike_type="15" lock_types='fork_lock' active="1" state="ok" electric_lock="1" boardcomputer="24169" /><bike number="11520" bike_type="15" lock_types='fork_lock' active="1" state="ok" electric_lock="1" boardcomputer="23120" /><bike number="11504" bike_type="15" lock_types='fork_lock' active="1" state="ok" electric_lock="1" boardcomputer="23868" /></place><place uid="4775082" lat="50.085640413486" lng="8.225514292717" name="Dürerplatz" spot="1" number="5183" bikes="0" free_racks="0" terminal_type="smart_sign" bike_types='{}' place_type="0" /><place uid="4775087" lat="50.07654569361" lng="8.2264477014542" name="Eltviller Straße" spot="1" number="5184" bikes="3" free_racks="0" terminal_type="smart_sign" bike_numbers='11579,11547,11544' bike_types='{"15":3}' place_type="0" ><bike number="11579" bike_type="15" lock_types='fork_lock' active="1" state="ok" electric_lock="1" boardcomputer="22949" /><bike number="11547" bike_type="15" lock_types='fork_lock' active="1" state="ok" electric_lock="1" boardcomputer="22575" /><bike number="11544" bike_type="15" lock_types='fork_lock' active="1" state="ok" electric_lock="1" boardcomputer="22656" /></place><place uid="4775102" lat="50.083051933073" lng="8.219211101532" name="Friedrich-Naumann-Straße (Studierendenwohnheim)" spot="1" number="5185" bikes="5" free_racks="0" terminal_type="smart_sign" bike_numbers='11566,11563,11557,11536,11531' bike_types='{"15":5}' place_type="0" ><bike number="11566" bike_type="15" lock_types='fork_lock' active="1" state="ok" electric_lock="1" boardcomputer="22999" /><bike number="11563" bike_type="15" lock_types='fork_lock' active="1" state="ok" electric_lock="1" boardcomputer="22803" /><bike number="11557" bike_type="15" lock_types='fork_lock' active="1" state="ok" electric_lock="1" boardcomputer="23076" /><bike number="11536" bike_type="15" lock_types='fork_lock' active="1" state="ok" electric_lock="1" boardcomputer="22867" /><bike number="11531" bike_type="15" lock_types='fork_lock' active="1" state="ok" electric_lock="1" boardcomputer="23845" /></place><place uid="4775108" lat="50.07967155272" lng="8.2242858409882" name="Gneisenaustraße" spot="1" number="5186" bikes="1" free_racks="0" terminal_type="smart_sign" bike_numbers='11530' bike_types='{"15":1}' place_type="0" ><bike number="11530" bike_type="15" lock_types='fork_lock' active="1" state="ok" electric_lock="1" boardcomputer="23869" /></place><place uid="4775113" lat="50.074514464467" lng="8.2335233688354" name="Herderstraße" spot="1" number="5187" bikes="3" free_racks="0" terminal_type="smart_sign" bike_numbers='11583,11578,11413' bike_types='{"15":3}' place_type="0" ><bike number="11583" bike_type="15" lock_types='fork_lock' active="1" state="ok" electric_lock="1" boardcomputer="22947" /><bike number="11578" bike_type="15" lock_types='fork_lock' active="1" state="ok" electric_lock="1" boardcomputer="22668" /><bike number="11413" bike_type="15" lock_types='fork_lock' active="1" state="ok" electric_lock="1" boardcomputer="23770" /></place><place uid="4775117" lat="50.080501179338" lng="8.2167863845825" name="Kurt-Schumacher-Ring (Campus Mitte)" spot="1" number="5188" bikes="0" free_racks="0" terminal_type="smart_sign" bike_types='{}' place_type="0" /><place uid="4775126" lat="50.07978" lng="8.2347" name="Platz der Deutschen Einheit" spot="1" number="5189" bikes="5" free_racks="0" terminal_type="smart_sign" bike_numbers='11580,11574,11552,11545,11539' bike_types='{"15":5}' place_type="0" ><bike number="11580" bike_type="15" lock_types='fork_lock' active="1" state="ok" electric_lock="1" boardcomputer="22907" /><bike number="11574" bike_type="15" lock_types='fork_lock' active="1" state="ok" electric_lock="1" boardcomputer="22817" /><bike number="11552" bike_type="15" lock_types='fork_lock' active="1" state="ok" electric_lock="1" boardcomputer="22960" /><bike number="11545" bike_type="15" lock_types='fork_lock' active="1" state="ok" electric_lock="1" boardcomputer="22614" /><bike number="11539" bike_type="15" lock_types='fork_lock' active="1" state="ok" electric_lock="1" boardcomputer="24180" /></place><place uid="4775132" lat="50.08674" lng="8.24166" name="Saalgasse " spot="1" number="5190" bikes="5" free_racks="0" terminal_type="smart_sign" bike_numbers='11592,11562,11538,11532,11518' bike_types='{"15":5}' place_type="0" ><bike number="11592" bike_type="15" lock_types='fork_lock' active="1" state="ok" electric_lock="1" boardcomputer="22689" /><bike number="11562" bike_type="15" lock_types='fork_lock' active="1" state="ok" electric_lock="1" boardcomputer="22901" /><bike number="11538" bike_type="15" lock_types='fork_lock' active="1" state="ok" electric_lock="1" boardcomputer="23149" /><bike number="11532" bike_type="15" lock_types='fork_lock' active="1" state="ok" electric_lock="1" boardcomputer="22642" /><bike number="11518" bike_type="15" lock_types='fork_lock' active="1" state="ok" electric_lock="1" boardcomputer="23829" /></place><place uid="4775141" lat="50.08258" lng="8.22872" name="Sedanplatz" spot="1" number="5191" bikes="1" free_racks="0" terminal_type="smart_sign" bike_numbers='11540' bike_types='{"15":1}' place_type="0" ><bike number="11540" bike_type="15" lock_types='fork_lock' active="1" state="ok" electric_lock="1" boardcomputer="22604" /></place><place uid="4775153" lat="50.0957" lng="8.21618" name="Unter den Eichen (Campus) " spot="1" number="5192" bikes="3" free_racks="0" terminal_type="smart_sign" bike_numbers='11575,11569,11477' bike_types='{"15":3}' place_type="0" ><bike number="11575" bike_type="15" lock_types='fork_lock' active="1" state="ok" electric_lock="1" boardcomputer="22756" /><bike number="11569" bike_type="15" lock_types='fork_lock' active="1" state="ok" electric_lock="1" boardcomputer="22724" /><bike number="11477" bike_type="15" lock_types='fork_lock' active="1" state="ok" electric_lock="1" boardcomputer="22931" /></place><place uid="4775162" lat="50.08464" lng="8.2426" name="Webergasse" spot="1" number="5193" bikes="5" free_racks="0" terminal_type="smart_sign" bike_numbers='11585,11584,11564,11559,11549' bike_types='{"15":5}' place_type="0" ><bike number="11585" bike_type="15" lock_types='fork_lock' active="1" state="ok" electric_lock="1" boardcomputer="22940" /><bike number="11584" bike_type="15" lock_types='fork_lock' active="1" state="ok" electric_lock="1" boardcomputer="22676" /><bike number="11564" bike_type="15" lock_types='fork_lock' active="1" state="ok" electric_lock="1" boardcomputer="22964" /><bike number="11559" bike_type="15" lock_types='fork_lock' active="1" state="ok" electric_lock="1" boardcomputer="22677" /><bike number="11549" bike_type="15" lock_types='fork_lock' active="1" state="ok" electric_lock="1" boardcomputer="23151" /></place><place uid="4880650" lat="50.07763" lng="8.22064" name="Loreleiring" spot="1" number="5194" bikes="0" free_racks="0" terminal_type="smart_sign" bike_types='{}' place_type="0" /><place uid="5029668" lat="50.067304627721" lng="8.2737457752228" name="John-F.-Kennedy - Straße" spot="1" number="5195" bikes="0" free_racks="0" bike_types='{}' place_type="0" /><place uid="5029742" lat="50.06291" lng="8.27154" name="Abraham-Lincoln-Park" spot="1" number="5196" bikes="3" free_racks="0" bike_numbers='11588,11542,11537' bike_types='{"15":3}' place_type="0" ><bike number="11588" bike_type="15" lock_types='fork_lock' active="1" state="ok" electric_lock="1" boardcomputer="22952" /><bike number="11542" bike_type="15" lock_types='fork_lock' active="1" state="ok" electric_lock="1" boardcomputer="24099" /><bike number="11537" bike_type="15" lock_types='fork_lock' active="1" state="ok" electric_lock="1" boardcomputer="24175" /></place><place uid="5301942" lat="50.07380523538" lng="8.255227804184" name="Frankfurter Straße" spot="1" number="5198" bikes="2" free_racks="0" bike_numbers='11500,11401' bike_types='{"15":2}' place_type="0" ><bike number="11500" bike_type="15" lock_types='fork_lock' active="1" state="ok" electric_lock="1" boardcomputer="22906" /><bike number="11401" bike_type="15" lock_types='fork_lock' active="1" state="ok" electric_lock="1" boardcomputer="23851" /></place></city><city uid="32" lat="50.1093" lng="8.73825" zoom="12" maps_icon="" alias="offenbach-am-main" break="1" name="Offenbach am Main" num_places="1" refresh_rate="10120" bounds='{"south_west":{"lat":50.1069,"lng":8.7383},"north_east":{"lat":50.1093,"lng":8.7413}}' booked_bikes="0" set_point_bikes="4" available_bikes="4" return_to_official_only="1" bike_types='{"15":4}' ><place uid="44537" lat="50.10689714994" lng="8.7412869930267" name="4287 - Hotel Macrander" spot="1" number="4287" bikes="4" free_racks="0" terminal_type="free" bike_numbers='38021,38359,38932,38926' bike_types='{"15":4}' place_type="7" ><bike number="38021" bike_type="15" lock_types='fork_lock' active="1" state="ok" electric_lock="1" boardcomputer="22376" /><bike number="38359" bike_type="15" lock_types='fork_lock' active="1" state="ok" electric_lock="1" boardcomputer="22446" /><bike number="38932" bike_type="15" lock_types='fork_lock' active="1" state="ok" electric_lock="1" boardcomputer="27698" /><bike number="38926" bike_type="15" lock_types='fork_lock' active="1" state="ok" electric_lock="1" boardcomputer="27094" /></place></city><city uid="43" lat="53.5506" lng="9.99052" zoom="13" maps_icon="" alias="hamburg" break="0" name="Hamburg" num_places="73" refresh_rate="10120" bounds='{"south_west":{"lat":53.5283,"lng":9.9147},"north_east":{"lat":53.6613,"lng":10.0861}}' booked_bikes="0" set_point_bikes="241" available_bikes="113" return_to_official_only="1" bike_types='{"undefined":3,"4":51,"5":113,"14":25,"29":2}' ><place uid="1420" lat="53.554535533933" lng="9.9911212921143" name="Neuer Jungfernstieg" spot="1" number="2813" bikes="2" free_racks="0" terminal_type="free" bike_numbers='02325,02472' bike_types='{"5":1,"14":1}' place_type="0" ><bike number="02325" bike_type="5" lock_types='analog_code_lock' active="1" state="ok" /><bike number="02472" bike_type="14" lock_types='analog_code_lock' active="1" state="ok" /></place><place uid="1422" lat="53.560691929808" lng="9.9892973899841" name="Bahnhof Dammtor / Ausgang Dag-Hammarskjoeld-Platz" spot="1" number="2821" bikes="0" free_racks="0" terminal_type="free" bike_types='{}' place_type="0" /><place uid="13713" lat="53.570517363842" lng="9.9952056258917" name="Mittelweg / Ecke Milchstraße" spot="1" number="2814" bikes="0" free_racks="0" terminal_type="free" bike_types='{}' place_type="0" /><place uid="13715" lat="53.540919453058" lng="9.9935245513916" name="HafenCity / Marco-Polo-Terrassen" spot="1" number="2828" bikes="3" free_racks="0" terminal_type="free" bike_numbers='02149,02070,02241' bike_types='{"5":3}' place_type="0" ><bike number="02149" bike_type="5" lock_types='analog_code_lock' active="1" state="ok" /><bike number="02070" bike_type="5" lock_types='analog_code_lock' active="1" state="ok" /><bike number="02241" bike_type="5" lock_types='analog_code_lock' active="1" state="ok" /></place><place uid="13717" lat="53.551794821121" lng="9.9942755699158" name="Jungfernstieg / Ecke Reesendamm" spot="1" number="2840" bikes="3" free_racks="0" terminal_type="free" bike_numbers='02347,02353,10626' bike_types='{"5":2,"4":1}' place_type="0" ><bike number="02347" bike_type="5" lock_types='analog_code_lock' active="1" state="ok" /><bike number="02353" bike_type="4" lock_types='analog_code_lock' active="1" state="ok" /><bike number="10626" bike_type="5" lock_types='analog_code_lock' active="1" state="ok" /></place><place uid="14294" lat="53.547106515957" lng="9.9720293283463" name="Jugendherberge Stintfang" spot="1" number="2803" bikes="1" free_racks="0" terminal_type="free" bike_numbers='02350' bike_types='{"5":1}' place_type="0" ><bike number="02350" bike_type="5" lock_types='analog_code_lock' active="1" state="ok" /></place><place uid="18404" lat="53.590537105743" lng="9.9870228767395" name="Marie-Jonas-Platz" spot="1" number="2849" bikes="3" free_racks="0" terminal_type="free" bike_numbers='02126,02152,02255' bike_types='{"5":2,"4":1}' place_type="0" ><bike number="02126" bike_type="5" lock_types='analog_code_lock' active="1" state="ok" /><bike number="02152" bike_type="5" lock_types='analog_code_lock' active="1" state="ok" /><bike number="02255" bike_type="4" lock_types='analog_code_lock' active="1" state="ok" /></place><place uid="19315" lat="53.591734295363" lng="10.055783987045" name="B&amp;B Hotel Hamburg Nord" spot="1" number="2801" bikes="4" free_racks="0" terminal_type="free" bike_numbers='02202,02249,02058,02477' bike_types='{"5":2,"4":1,"14":1}' place_type="0" ><bike number="02202" bike_type="5" lock_types='analog_code_lock' active="1" state="ok" /><bike number="02249" bike_type="5" lock_types='analog_code_lock' active="1" state="ok" /><bike number="02058" bike_type="4" lock_types='analog_code_lock' active="1" state="ok" /><bike number="02477" bike_type="14" lock_types='analog_code_lock' active="1" state="ok" /></place><place uid="24434" lat="53.554325206448" lng="10.007772445679" name="Hauptbahnhof Nord / Ecke Kirchenallee" spot="1" number="2825" bikes="0" free_racks="0" terminal_type="free" bike_types='{}' place_type="0" /><place uid="26609" lat="53.572798169271" lng="9.9888736009598" name="U-Bahn-Station Hallerstraße" spot="1" number="2848" bikes="4" free_racks="0" terminal_type="free" bike_numbers='02207,02046,02451,10093' bike_types='{"5":1,"4":1,"14":1,"undefined":1}' place_type="0" ><bike number="02207" bike_type="5" lock_types='analog_code_lock' active="1" state="ok" /><bike number="02046" bike_type="4" lock_types='analog_code_lock' active="1" state="ok" /><bike number="02451" bike_type="14" lock_types='analog_code_lock' active="1" state="ok" /><bike number="10093" bike_type="0" lock_types='analog_code_lock' active="1" state="ok" /></place><place uid="40688" lat="53.564155305325" lng="9.9659353494644" name="S-Bahn-Station Sternschanze" spot="1" number="2818" bikes="0" free_racks="0" terminal_type="free" bike_types='{}' place_type="0" /><place uid="44524" lat="53.555670009612" lng="10.001458525658" name="Ballindamm / Kunsthalle" spot="1" number="2831" bikes="1" free_racks="0" terminal_type="free" bike_numbers='02188' bike_types='{"5":1}' place_type="0" ><bike number="02188" bike_type="5" lock_types='analog_code_lock' active="1" state="ok" /></place><place uid="48334" lat="53.581856466584" lng="10.011420249939" name="Mühlenkamp / Preystraße " spot="1" number="2843" bikes="3" free_racks="0" terminal_type="free" bike_numbers='02125,02055,11049' bike_types='{"5":1,"4":1,"14":1}' place_type="0" ><bike number="02125" bike_type="5" lock_types='analog_code_lock' active="1" state="ok" /><bike number="02055" bike_type="4" lock_types='analog_code_lock' active="1" state="ok" /><bike number="11049" bike_type="14" lock_types='analog_code_lock' active="1" state="ok" /></place><place uid="55206" lat="53.567446364446" lng="10.001066923142" name="Alsterufer / Ecke Alte Rabenstraße" spot="1" number="2851" bikes="1" free_racks="0" terminal_type="free" bike_numbers='02112' bike_types='{"5":1}' place_type="0" ><bike number="02112" bike_type="5" lock_types='analog_code_lock' active="1" state="ok" /></place><place uid="55215" lat="53.573677329575" lng="10.002257823944" name="Alsterufer / Cliff Restaurant" spot="1" number="2823" bikes="2" free_racks="0" terminal_type="free" bike_numbers='02110,02136' bike_types='{"5":2}' place_type="0" ><bike number="02110" bike_type="5" lock_types='analog_code_lock' active="1" state="ok" /><bike number="02136" bike_type="5" lock_types='analog_code_lock' active="1" state="ok" /></place><place uid="55217" lat="53.580506126235" lng="10.00039100647" name="Fernsicht / Ecke Agnesstraße" spot="1" number="2837" bikes="1" free_racks="0" terminal_type="free" bike_numbers='02215' bike_types='{"5":1}' place_type="0" ><bike number="02215" bike_type="5" lock_types='analog_code_lock' active="1" state="ok" /></place><place uid="66311" lat="53.557205964727" lng="10.003931522369" name="Atlantic / Holzdamm" spot="1" number="2805" bikes="1" free_racks="0" terminal_type="free" bike_numbers='02261' bike_types='{"4":1}' place_type="0" ><bike number="02261" bike_type="4" lock_types='analog_code_lock' active="1" state="ok" /></place><place uid="67700" lat="53.545190886286" lng="10.018029212952" name="Mercure Hotel " spot="1" number="2817" bikes="2" free_racks="0" terminal_type="free" bike_numbers='02229,02278' bike_types='{"5":2}' place_type="0" ><bike number="02229" bike_type="5" lock_types='analog_code_lock' active="1" state="ok" /><bike number="02278" bike_type="5" lock_types='analog_code_lock' active="1" state="ok" /></place><place uid="69275" lat="53.546025996736" lng="9.9701249599457" name="Landungsbrücken" spot="1" number="2830" bikes="1" free_racks="0" terminal_type="free" bike_numbers='10082' bike_types='{"5":1}' place_type="0" ><bike number="10082" bike_type="5" lock_types='analog_code_lock' active="1" state="ok" /></place><place uid="69615" lat="53.553276740208" lng="10.005310177803" name="Hauptbahnhof / Ausgang Glockengießerwall" spot="1" number="2842" bikes="1" free_racks="0" terminal_type="free" bike_numbers='02269' bike_types='{"5":1}' place_type="0" ><bike number="02269" bike_type="5" lock_types='analog_code_lock' active="1" state="ok" /></place><place uid="94631" lat="53.5509741" lng="10.0001451" name="Mönckebergstraße / Gerhard Hauptmann Platz" spot="1" number="2836" bikes="1" free_racks="0" terminal_type="free" bike_numbers='02231' bike_types='{"5":1}' place_type="0" ><bike number="02231" bike_type="5" lock_types='analog_code_lock' active="1" state="ok" /></place><place uid="95334" lat="53.551565358042" lng="10.005326271057" name="Hauptbahnhof Süd / SATURN" spot="1" number="2847" bikes="1" free_racks="0" terminal_type="free" bike_numbers='02267' bike_types='{"4":1}' place_type="0" ><bike number="02267" bike_type="4" lock_types='analog_code_lock' active="1" state="ok" /></place><place uid="96028" lat="53.550934328159" lng="9.9922585487366" name="Rathaus" spot="1" number="2804" bikes="0" free_racks="0" terminal_type="free" bike_types='{}' place_type="0" /><place uid="97459" lat="53.543775623322" lng="9.9897909164429" name="Miniaturwunderland / Hamburg Dungeon" spot="1" number="2815" bikes="2" free_racks="0" terminal_type="free" bike_numbers='02129,02298' bike_types='{"5":1,"4":1}' place_type="0" ><bike number="02129" bike_type="5" lock_types='analog_code_lock' active="1" state="ok" /><bike number="02298" bike_type="4" lock_types='analog_code_lock' active="1" state="ok" /></place><place uid="97629" lat="53.5460277" lng="9.9727882" name="Landungsbrücken / Eingang Hafentor" spot="1" number="2829" bikes="3" free_racks="0" terminal_type="free" bike_numbers='02246,10669,02487' bike_types='{"5":2,"14":1}' place_type="0" ><bike number="02246" bike_type="5" lock_types='analog_code_lock' active="1" state="ok" /><bike number="10669" bike_type="5" lock_types='analog_code_lock' active="1" state="ok" /><bike number="02487" bike_type="14" lock_types='analog_code_lock' active="1" state="ok" /></place><place uid="99040" lat="53.547179824522" lng="9.9422836303711" name="S-Bahn-Station Königsstraße" spot="1" number="2841" bikes="1" free_racks="0" terminal_type="free" bike_numbers='02280' bike_types='{"4":1}' place_type="0" ><bike number="02280" bike_type="4" lock_types='analog_code_lock' active="1" state="ok" /></place><place uid="122661" lat="53.544237820259" lng="9.9812293052673" name="U-Bahn-Station Baumwall" spot="1" number="2809" bikes="2" free_racks="0" terminal_type="free" bike_numbers='02442,02073' bike_types='{"5":1,"4":1}' place_type="0" ><bike number="02442" bike_type="5" lock_types='analog_code_lock' active="1" state="ok" /><bike number="02073" bike_type="4" lock_types='analog_code_lock' active="1" state="ok" /></place><place uid="122663" lat="53.555383206836" lng="9.988015294075" name="Gänsemarkt" spot="1" number="2834" bikes="2" free_racks="0" terminal_type="free" bike_numbers='02289,02099' bike_types='{"4":1,"5":1}' place_type="0" ><bike number="02289" bike_type="4" lock_types='analog_code_lock' active="1" state="ok" /><bike number="02099" bike_type="5" lock_types='analog_code_lock' active="1" state="ok" /></place><place uid="122664" lat="53.54978060273" lng="9.9858427047729" name="S-Bahn-Station Stadthausbrücke" spot="1" number="2846" bikes="1" free_racks="0" terminal_type="free" bike_numbers='02077' bike_types='{"4":1}' place_type="0" ><bike number="02077" bike_type="4" lock_types='analog_code_lock' active="1" state="ok" /></place><place uid="122671" lat="53.553279927074" lng="10.02388715744" name="U Bahn Berliner Tor" spot="1" number="2802" bikes="0" free_racks="0" terminal_type="free" bike_types='{}' place_type="0" /><place uid="125746" lat="53.563330110949" lng="9.9296236038208" name="B&amp;B Hotel Hamburg Altona" spot="1" number="2826" bikes="2" free_racks="0" terminal_type="free" bike_numbers='10142,02124' bike_types='{"5":2}' place_type="0" ><bike number="10142" bike_type="5" lock_types='analog_code_lock' active="1" state="ok" /><bike number="02124" bike_type="5" lock_types='analog_code_lock' active="1" state="ok" /></place><place uid="150742" lat="53.552132639502" lng="10.01043856144" name="Hauptbahnhof ZOB" spot="1" number="2808" bikes="1" free_racks="0" terminal_type="free" bike_numbers='02224' bike_types='{"5":1}' place_type="0" ><bike number="02224" bike_type="5" lock_types='analog_code_lock' active="1" state="ok" /></place><place uid="153986" lat="53.552291986858" lng="9.9360018968582" name="Bahnhof Altona / Reisezentrum" spot="1" number="2819" bikes="0" free_racks="0" terminal_type="free" bike_types='{}' place_type="0" /><place uid="153987" lat="53.581416973752" lng="9.9474227428436" name="U-Bahn Lutterothstraße / Else Rauch Platz" spot="1" number="2832" bikes="2" free_racks="0" terminal_type="free" bike_numbers='10416,02490' bike_types='{"5":1,"14":1}' place_type="0" ><bike number="10416" bike_type="5" lock_types='analog_code_lock' active="1" state="ok" /><bike number="02490" bike_type="14" lock_types='analog_code_lock' active="1" state="ok" /></place><place uid="153990" lat="53.550354282289" lng="9.9699211120605" name="U-Bahn-Station St.Pauli" spot="1" number="2844" bikes="2" free_racks="0" terminal_type="free" bike_numbers='02109,02458' bike_types='{"5":1,"14":1}' place_type="0" ><bike number="02109" bike_type="5" lock_types='analog_code_lock' active="1" state="ok" /><bike number="02458" bike_type="14" lock_types='analog_code_lock' active="1" state="ok" /></place><place uid="153993" lat="53.55218681767" lng="9.9339473247528" name="Bahnhof Altona / Ausgang Hauptstraße" spot="1" number="2852" bikes="1" free_racks="0" terminal_type="free" bike_numbers='10331' bike_types='{"5":1}' place_type="0" ><bike number="10331" bike_type="5" lock_types='analog_code_lock' active="1" state="ok" /></place><place uid="154507" lat="53.5454809456" lng="9.9529749155045" name="Fischmarkt" spot="1" number="2812" bikes="5" free_racks="0" terminal_type="free" bike_numbers='02196,02291,02336,02082,02327' bike_types='{"5":2,"4":2,"undefined":1}' place_type="0" ><bike number="02196" bike_type="5" lock_types='analog_code_lock' active="1" state="ok" /><bike number="02291" bike_type="4" lock_types='analog_code_lock' active="1" state="ok" /><bike number="02336" bike_type="0" lock_types='analog_code_lock' active="1" state="ok" /><bike number="02082" bike_type="4" lock_types='analog_code_lock' active="1" state="ok" /><bike number="02327" bike_type="5" lock_types='analog_code_lock' active="1" state="ok" /></place><place uid="174066" lat="53.557031818232" lng="10.020193648234" name="U-Bahn Lohmühlenstraße / Motel One" spot="1" number="2824" bikes="2" free_racks="0" terminal_type="free" bike_numbers='02276,02435' bike_types='{"5":2}' place_type="0" ><bike number="02276" bike_type="5" lock_types='analog_code_lock' active="1" state="ok" /><bike number="02435" bike_type="5" lock_types='analog_code_lock' active="1" state="ok" /></place><place uid="204633" lat="53.544183631914" lng="9.9146890640259" name="Museumshafen" spot="1" number="2800" bikes="3" free_racks="0" terminal_type="free" bike_numbers='02185,02217,02187' bike_types='{"5":3}' place_type="0" ><bike number="02185" bike_type="5" lock_types='analog_code_lock' active="1" state="ok" /><bike number="02217" bike_type="5" lock_types='analog_code_lock' active="1" state="ok" /><bike number="02187" bike_type="5" lock_types='analog_code_lock' active="1" state="ok" /></place><place uid="305388" lat="53.550112062979" lng="9.9765086174011" name="Adina Apartment Hotel Hamburg Michel" spot="1" number="2850" bikes="0" free_racks="0" terminal_type="free" bike_types='{}' place_type="0" /><place uid="376053" lat="53.557331" lng="10.011153" name="Gurlittstr. / Lange Reihe" spot="1" number="2806" bikes="0" free_racks="0" terminal_type="free" bike_types='{}' place_type="0" /><place uid="447262" lat="53.571702378665" lng="9.9526906013489" name="U-Bahn Emilienstrasse" spot="1" number="2845" bikes="2" free_racks="0" terminal_type="free" bike_numbers='02243,02470' bike_types='{"5":1,"14":1}' place_type="0" ><bike number="02243" bike_type="5" lock_types='analog_code_lock' active="1" state="ok" /><bike number="02470" bike_type="14" lock_types='analog_code_lock' active="1" state="ok" /></place><place uid="453487" lat="53.549672240162" lng="9.9745881557465" name="Motel One / St. Pauli" spot="1" number="2807" bikes="0" free_racks="0" terminal_type="free" bike_types='{}' place_type="0" /><place uid="512173" lat="53.661323069276" lng="10.017954111099" name="U-Bahnhof Langenhorn-Nord" spot="1" number="2853" bikes="4" free_racks="0" terminal_type="free" bike_numbers='02285,02476,02463,11015' bike_types='{"4":1,"14":3}' place_type="0" ><bike number="02285" bike_type="4" lock_types='analog_code_lock' active="1" state="ok" /><bike number="02476" bike_type="14" lock_types='analog_code_lock' active="1" state="ok" /><bike number="02463" bike_type="14" lock_types='analog_code_lock' active="1" state="ok" /><bike number="11015" bike_type="14" lock_types='analog_code_lock' active="1" state="ok" /></place><place uid="522448" lat="53.640398695656" lng="9.9501317739487" name="Niendorf Nord" spot="1" number="2854" bikes="3" free_racks="0" terminal_type="free" bike_numbers='02239,02197,02318' bike_types='{"5":2,"4":1}' place_type="0" ><bike number="02239" bike_type="5" lock_types='analog_code_lock' active="1" state="ok" /><bike number="02197" bike_type="5" lock_types='analog_code_lock' active="1" state="ok" /><bike number="02318" bike_type="4" lock_types='analog_code_lock' active="1" state="ok" /></place><place uid="652594" lat="53.564196723924" lng="9.9848127365112" name="Uni Hamburg / Grindel" spot="1" number="2858" bikes="4" free_racks="0" bike_numbers='02130,02233,02296,02461' bike_types='{"5":2,"4":1,"14":1}' place_type="0" ><bike number="02130" bike_type="5" lock_types='analog_code_lock' active="1" state="ok" /><bike number="02233" bike_type="5" lock_types='analog_code_lock' active="1" state="ok" /><bike number="02296" bike_type="4" lock_types='analog_code_lock' active="1" state="ok" /><bike number="02461" bike_type="14" lock_types='analog_code_lock' active="1" state="ok" /></place><place uid="734964" lat="53.567844587532" lng="9.9698674678802" name="U-Bahn Schlump" spot="1" number="2856" bikes="1" free_racks="0" terminal_type="free" bike_numbers='10502' bike_types='{"5":1}' place_type="0" ><bike number="10502" bike_type="5" lock_types='analog_code_lock' active="1" state="ok" /></place><place uid="735048" lat="53.562437990812" lng="9.961541891098" name="Schulterblatt / Rote Flora" spot="1" number="2855" bikes="2" free_racks="0" terminal_type="free" bike_numbers='10111,02067' bike_types='{"5":2}' place_type="0" ><bike number="10111" bike_type="5" lock_types='analog_code_lock' active="1" state="ok" /><bike number="02067" bike_type="5" lock_types='analog_code_lock' active="1" state="ok" /></place><place uid="789663" lat="53.54711289062" lng="9.9629634618759" name="Riverside Hotel" spot="1" number="2857" bikes="3" free_racks="0" terminal_type="free" bike_numbers='02324,02311,02410' bike_types='{"5":1,"4":2}' place_type="0" ><bike number="02324" bike_type="5" lock_types='analog_code_lock' active="1" state="ok" /><bike number="02311" bike_type="4" lock_types='analog_code_lock' active="1" state="ok" /><bike number="02410" bike_type="4" lock_types='analog_code_lock' active="1" state="ok" /></place><place uid="2414750" lat="53.547796" lng="10.014026" name="Ramada Hotel Hamburg " spot="1" number="2816" bikes="0" free_racks="0" terminal_type="free" bike_types='{}' place_type="0" /><place uid="2815612" lat="53.559050949122" lng="9.9757254123688" name="U-Bahn Messehalle" spot="1" number="2859" bikes="3" free_racks="0" bike_numbers='02292,02059,11013' bike_types='{"4":2,"14":1}' place_type="0" ><bike number="02292" bike_type="4" lock_types='analog_code_lock' active="1" state="ok" /><bike number="02059" bike_type="4" lock_types='analog_code_lock' active="1" state="ok" /><bike number="11013" bike_type="14" lock_types='analog_code_lock' active="1" state="ok" /></place><place uid="2815617" lat="53.557094434594" lng="9.9670457839966" name="U-Bahn Feldstrasse" spot="1" number="2860" bikes="3" free_racks="0" bike_numbers='10414,02160,10122' bike_types='{"5":3}' place_type="0" ><bike number="10414" bike_type="5" lock_types='analog_code_lock' active="1" state="ok" /><bike number="02160" bike_type="5" lock_types='analog_code_lock' active="1" state="ok" /><bike number="10122" bike_type="5" lock_types='analog_code_lock' active="1" state="ok" /></place><place uid="8429493" lat="53.541059715918" lng="9.9852204322815" name="Elbphilharmonie" spot="1" number="2833" bikes="5" free_racks="0" terminal_type="free" bike_numbers='02213,02248,02190,02431,02466' bike_types='{"5":3,"4":1,"14":1}' place_type="0" ><bike number="02213" bike_type="5" lock_types='analog_code_lock' active="1" state="ok" /><bike number="02248" bike_type="5" lock_types='analog_code_lock' active="1" state="ok" /><bike number="02190" bike_type="5" lock_types='analog_code_lock' active="1" state="ok" /><bike number="02431" bike_type="4" lock_types='analog_code_lock' active="1" state="ok" /><bike number="02466" bike_type="14" lock_types='analog_code_lock' active="1" state="ok" /></place></city><city uid="50" lat="51.2243" lng="6.77204" zoom="12" maps_icon="" alias="duesseldorf" break="0" name="Düsseldorf" num_places="92" refresh_rate="10120" bounds='{"south_west":{"lat":50.3502,"lng":6.6476},"north_east":{"lat":51.3006,"lng":7.5894}}' booked_bikes="0" set_point_bikes="355" available_bikes="139" return_to_official_only="1" bike_types='{"undefined":23,"4":85,"5":166,"14":2}' ><place uid="1992" lat="51.247508373785" lng="6.7835587263107" name="Spichernplatz" spot="1" number="5030" bikes="0" free_racks="0" bike_types='{}' place_type="0" /><place uid="1997" lat="51.216390293481" lng="6.8035680055618" name="Oberbilker Markt" spot="1" number="5028" bikes="1" free_racks="0" bike_numbers='31072' bike_types='{"5":1}' place_type="0" ><bike number="31072" bike_type="5" lock_types='analog_code_lock' active="1" state="ok" /></place><place uid="2003" lat="51.231424592978" lng="6.762535572052" name="Luegplatz" spot="1" number="5034" bikes="2" free_racks="0" bike_numbers='50767,31419' bike_types='{"5":1,"undefined":1}' place_type="0" ><bike number="50767" bike_type="5" lock_types='analog_code_lock' active="1" state="ok" /><bike number="31419" bike_type="0" lock_types='analog_code_lock' active="1" state="ok" /></place><place uid="2008" lat="51.213765926935" lng="6.7516243457794" name="Medienhafen UCI Kino" spot="1" number="5007" bikes="1" free_racks="0" bike_numbers='31101' bike_types='{"5":1}' place_type="0" ><bike number="31101" bike_type="5" lock_types='analog_code_lock' active="1" state="ok" /></place><place uid="2009" lat="51.226699829102" lng="6.7585701942444" name="Jugendherberge/Düsseldorfer Straße" spot="1" number="5014" bikes="3" free_racks="0" bike_numbers='04678,10648,00538' bike_types='{"4":2,"5":1}' place_type="0" ><bike number="04678" bike_type="4" lock_types='analog_code_lock' active="1" state="ok" /><bike number="10648" bike_type="5" lock_types='analog_code_lock' active="1" state="ok" /><bike number="00538" bike_type="4" lock_types='analog_code_lock' active="1" state="ok" /></place><place uid="2011" lat="51.231421233907" lng="6.7874103784561" name="Goethe-Museum/Alt Pempelfort" spot="1" number="5001" bikes="0" free_racks="0" terminal_type="free" bike_types='{}' place_type="0" /><place uid="2349" lat="51.236570402493" lng="6.7716389894485" name="Rheinterrasse" spot="1" number="5035" bikes="1" free_racks="0" terminal_type="free" bike_numbers='31171' bike_types='{"5":1}' place_type="0" ><bike number="31171" bike_type="5" lock_types='analog_code_lock' active="1" state="ok" /></place><place uid="2353" lat="51.238646029594" lng="6.803240776062" name="Brehmstraße/Graf-Recke-Straße" spot="1" number="5044" bikes="3" free_racks="0" bike_numbers='20015,31022,50275' bike_types='{"5":3}' place_type="0" ><bike number="20015" bike_type="5" lock_types='analog_code_lock' active="1" state="ok" /><bike number="31022" bike_type="5" lock_types='analog_code_lock' active="1" state="ok" /><bike number="50275" bike_type="5" lock_types='analog_code_lock' active="1" state="ok" /></place><place uid="2680" lat="51.227131499577" lng="6.7877697944641" name="Tonhallenstraße" spot="1" number="5003" bikes="0" free_racks="0" bike_types='{}' place_type="0" /><place uid="2728" lat="51.250312132383" lng="6.8005800247192" name="ARAG Platz" spot="1" number="5032" bikes="0" free_racks="0" bike_types='{}' place_type="0" /><place uid="2751" lat="51.225146060391" lng="6.7767512798309" name="Heinrich-Heine-Platz" spot="1" number="5025" bikes="2" free_racks="0" bike_numbers='04558,31027' bike_types='{"5":2}' place_type="0" ><bike number="04558" bike_type="5" lock_types='analog_code_lock' active="1" state="ok" /><bike number="31027" bike_type="5" lock_types='analog_code_lock' active="1" state="ok" /></place><place uid="3002" lat="51.231589187178" lng="6.7473435401917" name="Belsenplatz" spot="1" number="5009" bikes="2" free_racks="0" bike_numbers='04555,20541' bike_types='{"5":2}' place_type="0" ><bike number="04555" bike_type="5" lock_types='analog_code_lock' active="1" state="ok" /><bike number="20541" bike_type="5" lock_types='analog_code_lock' active="1" state="ok" /></place><place uid="3521" lat="51.218984270636" lng="6.7839181423187" name="Oststraße" spot="1" number="5027" bikes="1" free_racks="0" bike_numbers='00546' bike_types='{"4":1}' place_type="0" ><bike number="00546" bike_type="4" lock_types='analog_code_lock' active="1" state="ok" /></place><place uid="5920" lat="51.235294080435" lng="6.7780494689941" name="Nordstraße U/Fischerstraße" spot="1" number="5012" bikes="3" free_racks="0" bike_numbers='04686,04544,31272' bike_types='{"4":1,"5":2}' place_type="0" ><bike number="04686" bike_type="4" lock_types='analog_code_lock' active="1" state="ok" /><bike number="04544" bike_type="5" lock_types='analog_code_lock' active="1" state="ok" /><bike number="31272" bike_type="5" lock_types='analog_code_lock' active="1" state="ok" /></place><place uid="7061" lat="51.208751996507" lng="6.7765474319458" name="Bilker Arcaden" spot="1" number="5008" bikes="3" free_racks="0" bike_numbers='50419,50276,31161' bike_types='{"5":3}' place_type="0" ><bike number="50419" bike_type="5" lock_types='analog_code_lock' active="1" state="ok" /><bike number="50276" bike_type="5" lock_types='analog_code_lock' active="1" state="ok" /><bike number="31161" bike_type="5" lock_types='analog_code_lock' active="1" state="ok" /></place><place uid="20725" lat="51.218927150951" lng="6.7658615112305" name="Apolloplatz" spot="1" number="5023" bikes="1" free_racks="0" bike_numbers='06253' bike_types='{"5":1}' place_type="0" ><bike number="06253" bike_type="5" lock_types='analog_code_lock' active="1" state="ok" /></place><place uid="66643" lat="51.22651336864" lng="6.7990779876709" name="Ackerstraße/Gerresheimer Straße" spot="1" number="5011" bikes="1" free_racks="0" bike_numbers='50251' bike_types='{"5":1}' place_type="0" ><bike number="50251" bike_type="5" lock_types='analog_code_lock' active="1" state="ok" /></place><place uid="66644" lat="51.217415133527" lng="6.7824053764343" name="Berliner Allee / Corneliusstraße" spot="1" number="5026" bikes="0" free_racks="0" terminal_type="free" bike_types='{}' place_type="0" /><place uid="66645" lat="51.237900426753" lng="6.789368391037" name="Carl-Mosterts-Platz" spot="1" number="5018" bikes="2" free_racks="0" bike_numbers='31067,20078' bike_types='{"5":1,"4":1}' place_type="0" ><bike number="31067" bike_type="5" lock_types='analog_code_lock' active="1" state="ok" /><bike number="20078" bike_type="4" lock_types='analog_code_lock' active="1" state="ok" /></place><place uid="66646" lat="51.242592149697" lng="6.7820996046066" name="Collenbachstraße/Roßstraße" spot="1" number="5021" bikes="0" free_racks="0" bike_types='{}' place_type="0" /><place uid="66647" lat="51.252514725824" lng="6.7820405960083" name="Derendorfer Allee 10" spot="1" number="5010" bikes="0" free_racks="0" bike_types='{}' place_type="0" /><place uid="66648" lat="51.23189486056" lng="6.8091416358948" name="Grafenberger Allee / Dorotheenstraße" spot="1" number="5031" bikes="2" free_racks="0" bike_numbers='31084,50286' bike_types='{"5":2}' place_type="0" ><bike number="31084" bike_type="5" lock_types='analog_code_lock' active="1" state="ok" /><bike number="50286" bike_type="5" lock_types='analog_code_lock' active="1" state="ok" /></place><place uid="66649" lat="51.220674309239" lng="6.8091416358948" name="Erkrather Straße/Werdener Straße" spot="1" number="5033" bikes="3" free_racks="0" bike_numbers='04520,00714,20097' bike_types='{"5":2,"undefined":1}' place_type="0" ><bike number="04520" bike_type="5" lock_types='analog_code_lock' active="1" state="ok" /><bike number="00714" bike_type="5" lock_types='analog_code_lock' active="1" state="ok" /><bike number="20097" bike_type="0" lock_types='analog_code_lock' active="1" state="ok" /></place><place uid="66650" lat="51.248545952281" lng="6.7769873142242" name="Frankenplatz / Frankenstraße" spot="1" number="5013" bikes="2" free_racks="0" bike_numbers='04915,32095' bike_types='{"5":1,"undefined":1}' place_type="0" ><bike number="04915" bike_type="5" lock_types='analog_code_lock' active="1" state="ok" /><bike number="32095" bike_type="0" lock_types='analog_code_lock' active="1" state="ok" /></place><place uid="66651" lat="51.212267181881" lng="6.7856240272522" name="Fürstenplatz/Kirchfeldstraße" spot="1" number="5043" bikes="3" free_racks="0" bike_numbers='04503,31183,31050' bike_types='{"5":3}' place_type="0" ><bike number="04503" bike_type="5" lock_types='analog_code_lock' active="1" state="ok" /><bike number="31183" bike_type="5" lock_types='analog_code_lock' active="1" state="ok" /><bike number="31050" bike_type="5" lock_types='analog_code_lock' active="1" state="ok" /></place><place uid="66652" lat="51.207585809771" lng="6.7601430416107" name="Georg-Schulhoff-Platz/Fährstraße" spot="1" number="5002" bikes="0" free_racks="0" bike_types='{}' place_type="0" /><place uid="66654" lat="51.23099462984" lng="6.7750078439713" name="Tonhalle" spot="1" number="5019" bikes="1" free_racks="0" bike_numbers='10525' bike_types='{"5":1}' place_type="0" ><bike number="10525" bike_type="5" lock_types='analog_code_lock' active="1" state="ok" /></place><place uid="66655" lat="51.249788329391" lng="6.765239238739" name="Kaiserswerther Straße/Uerdinger Straße" spot="1" number="5024" bikes="2" free_racks="0" bike_numbers='04566,50239' bike_types='{"5":2}' place_type="0" ><bike number="04566" bike_type="5" lock_types='analog_code_lock' active="1" state="ok" /><bike number="50239" bike_type="5" lock_types='analog_code_lock' active="1" state="ok" /></place><place uid="66658" lat="51.21981753798" lng="6.7784196138382" name="Königsallee / Graf-Adolf-Platz" spot="1" number="5004" bikes="0" free_racks="0" bike_types='{}' place_type="0" /><place uid="66659" lat="51.223056385525" lng="6.7792296409607" name="Königsallee/Steinstraße" spot="1" number="5020" bikes="0" free_racks="0" bike_types='{}' place_type="0" /><place uid="66660" lat="51.215929948068" lng="6.7580991983414" name="Medienhafen / Gehrybauten" spot="1" number="5006" bikes="2" free_racks="0" bike_numbers='00695,52609' bike_types='{"4":2}' place_type="0" ><bike number="00695" bike_type="4" lock_types='analog_code_lock' active="1" state="ok" /><bike number="52609" bike_type="4" lock_types='analog_code_lock' active="1" state="ok" /></place><place uid="66661" lat="51.243878343776" lng="6.7871260643005" name="Münsterplatz" spot="1" number="5038" bikes="5" free_racks="0" bike_numbers='02123,04545,32091,04876,31157' bike_types='{"5":3,"undefined":1,"4":1}' place_type="0" ><bike number="02123" bike_type="5" lock_types='analog_code_lock' active="1" state="ok" /><bike number="04545" bike_type="5" lock_types='analog_code_lock' active="1" state="ok" /><bike number="32091" bike_type="0" lock_types='analog_code_lock' active="1" state="ok" /><bike number="04876" bike_type="4" lock_types='fork_lock' active="1" state="ok" electric_lock="1" /><bike number="31157" bike_type="5" lock_types='frame_lock' active="1" state="ok" /></place><place uid="66665" lat="51.222488595738" lng="6.8131649494171" name="Stadtwerke Düsseldorf" spot="1" number="5046" bikes="3" free_racks="0" bike_numbers='04453,00819,04871' bike_types='{"5":2,"4":1}' place_type="0" ><bike number="04453" bike_type="5" lock_types='analog_code_lock' active="1" state="ok" /><bike number="00819" bike_type="5" lock_types='analog_code_lock' active="1" state="ok" /><bike number="04871" bike_type="4" lock_types='analog_code_lock' active="1" state="ok" /></place><place uid="66666" lat="51.223140377502" lng="6.7731302976608" name="Carlsplatz" spot="1" number="5036" bikes="2" free_racks="0" bike_numbers='04655,50303' bike_types='{"4":1,"5":1}' place_type="0" ><bike number="04655" bike_type="4" lock_types='analog_code_lock' active="1" state="ok" /><bike number="50303" bike_type="5" lock_types='analog_code_lock' active="1" state="ok" /></place><place uid="66668" lat="51.205908734428" lng="6.7804473638535" name="Karolingerplatz/Feuerbachstraße" spot="1" number="5039" bikes="2" free_racks="0" bike_numbers='31097,32080' bike_types='{"5":1,"4":1}' place_type="0" ><bike number="31097" bike_type="5" lock_types='analog_code_lock' active="1" state="ok" /><bike number="32080" bike_type="4" lock_types='analog_code_lock' active="1" state="ok" /></place><place uid="66677" lat="51.240644319954" lng="6.78198158741" name="Nordstraße/Collenbachstraße" spot="1" number="5029" bikes="0" free_racks="0" bike_types='{}' place_type="0" /><place uid="66747" lat="51.218527311173" lng="6.7948669195175" name="Radstation" spot="1" number="5017" bikes="1" free_racks="0" bike_numbers='31026' bike_types='{"5":1}' place_type="0" ><bike number="31026" bike_type="5" lock_types='analog_code_lock' active="1" state="ok" /></place><place uid="66983" lat="51.213752485492" lng="6.7766225337982" name="Kirchplatz" spot="1" number="5041" bikes="0" free_racks="0" bike_types='{}' place_type="0" /><place uid="121909" lat="51.229671124339" lng="6.7978549003601" name="S-Bahnhof Wehrhahn" spot="1" number="5072" bikes="0" free_racks="0" bike_types='{}' place_type="0" /><place uid="121911" lat="51.236647652429" lng="6.7976671457291" name="S-Bahnhof Zoo" spot="1" number="5076" bikes="2" free_racks="0" bike_numbers='31003,00698' bike_types='{"5":1,"4":1}' place_type="0" ><bike number="31003" bike_type="5" lock_types='analog_code_lock' active="1" state="ok" /><bike number="00698" bike_type="4" lock_types='analog_code_lock' active="1" state="ok" /></place><place uid="121916" lat="51.212163007206" lng="6.7637211084366" name="Bilker Allee / Neusser Str." spot="1" number="5083" bikes="1" free_racks="0" bike_numbers='04866' bike_types='{"undefined":1}' place_type="0" ><bike number="04866" bike_type="0" lock_types='analog_code_lock' active="1" state="ok" /></place><place uid="121921" lat="51.209558563717" lng="6.7935955524445" name="S-Bahnhof Volksgarten" spot="1" number="5073" bikes="2" free_racks="0" bike_numbers='31198,31201' bike_types='{"4":1,"5":1}' place_type="0" ><bike number="31198" bike_type="4" lock_types='analog_code_lock' active="1" state="ok" /><bike number="31201" bike_type="5" lock_types='analog_code_lock' active="1" state="ok" /></place><place uid="121923" lat="51.227071030612" lng="6.8118560314179" name="Dorotheenplatz" spot="1" number="5078" bikes="3" free_racks="0" bike_numbers='04659,50019,20114' bike_types='{"4":2,"undefined":1}' place_type="0" ><bike number="04659" bike_type="4" lock_types='analog_code_lock' active="1" state="ok" /><bike number="50019" bike_type="4" lock_types='analog_code_lock' active="1" state="ok" /><bike number="20114" bike_type="0" lock_types='analog_code_lock' active="1" state="ok" /></place><place uid="121924" lat="51.223674562891" lng="6.7958110570908" name="Worringer Platz" spot="1" number="5062" bikes="5" free_racks="0" bike_numbers='10104,02351,04868,20102,52731' bike_types='{"5":2,"4":3}' place_type="0" ><bike number="10104" bike_type="5" lock_types='analog_code_lock' active="1" state="ok" /><bike number="02351" bike_type="5" lock_types='analog_code_lock' active="1" state="ok" /><bike number="04868" bike_type="4" lock_types='analog_code_lock' active="1" state="ok" /><bike number="20102" bike_type="4" lock_types='analog_code_lock' active="1" state="ok" /><bike number="52731" bike_type="4" lock_types='analog_code_lock' active="1" state="ok" /></place><place uid="121931" lat="51.2187188315" lng="6.7765206098557" name="Graf-Adolf-Platz" spot="1" number="5053" bikes="1" free_racks="0" bike_numbers='04815' bike_types='{"5":1}' place_type="0" ><bike number="04815" bike_type="5" lock_types='analog_code_lock' active="1" state="ok" /></place><place uid="121935" lat="51.229607299508" lng="6.7767459154129" name="Ratinger Tor" spot="1" number="5081" bikes="0" free_racks="0" bike_types='{}' place_type="0" /><place uid="121997" lat="51.2122844" lng="6.79367334" name="Volksgartenstraße/Sonnenstraße" spot="1" number="5079" bikes="1" free_racks="0" bike_numbers='00705' bike_types='{"5":1}' place_type="0" ><bike number="00705" bike_type="5" lock_types='analog_code_lock' active="1" state="ok" /></place><place uid="122000" lat="51.205700356072" lng="6.788467168808" name="Auf'm Hennekamp/Redinghovenstraße" spot="1" number="5063" bikes="3" free_racks="0" bike_numbers='04673,31052,10613' bike_types='{"4":1,"5":2}' place_type="0" ><bike number="04673" bike_type="4" lock_types='analog_code_lock' active="1" state="ok" /><bike number="31052" bike_type="5" lock_types='analog_code_lock' active="1" state="ok" /><bike number="10613" bike_type="5" lock_types='analog_code_lock' active="1" state="ok" /></place><place uid="122769" lat="51.220539914802" lng="6.7979300022125" name="Ludwig-Erhard-Allee" spot="1" number="5068" bikes="0" free_racks="0" bike_types='{}' place_type="0" /><place uid="175517" lat="51.195737426384" lng="6.768651008606" name="Aachener Platz" spot="1" number="5098" bikes="5" free_racks="0" bike_numbers='04457,31044,20029,32041,32156' bike_types='{"5":3,"4":1,"undefined":1}' place_type="0" ><bike number="04457" bike_type="5" lock_types='analog_code_lock' active="1" state="ok" /><bike number="31044" bike_type="5" lock_types='analog_code_lock' active="1" state="ok" /><bike number="20029" bike_type="5" lock_types='analog_code_lock' active="1" state="ok" /><bike number="32041" bike_type="4" lock_types='analog_code_lock' active="1" state="ok" /><bike number="32156" bike_type="0" lock_types='analog_code_lock' active="1" state="ok" /></place><place uid="236597" lat="51.290965875434" lng="6.7875015735626" name="Düsseldorf Flughafen" spot="1" number="5100" bikes="1" free_racks="0" bike_numbers='04907' bike_types='{"5":1}' place_type="0" ><bike number="04907" bike_type="5" lock_types='analog_code_lock' active="1" state="ok" /></place><place uid="236650" lat="51.276930924545" lng="6.7888963222504" name="S-Bahnhof Unterrath" spot="1" number="5040" bikes="0" free_racks="0" bike_types='{}' place_type="0" /><place uid="236653" lat="51.284661918138" lng="6.7859619855881" name="C&amp;A Online GmbH" spot="1" number="5045" bikes="3" free_racks="0" bike_numbers='31102,31194,50766' bike_types='{"5":2,"4":1}' place_type="9" ><bike number="31102" bike_type="5" lock_types='analog_code_lock' active="1" state="ok" /><bike number="31194" bike_type="4" lock_types='analog_code_lock' active="1" state="ok" /><bike number="50766" bike_type="5" lock_types='analog_code_lock' active="1" state="ok" /></place><place uid="274376" lat="51.238044846265" lng="6.7783498764038" name="Hotel Indigo" spot="1" number="5055" bikes="0" free_racks="0" bike_types='{}' place_type="0" /><place uid="309170" lat="51.213759206214" lng="6.8169951438904" name="Ronsdorfer Straße" spot="1" number="5066" bikes="5" free_racks="0" bike_numbers='04644,04439,05698,50363,31300' bike_types='{"4":2,"undefined":1,"5":2}' place_type="0" ><bike number="04644" bike_type="4" lock_types='analog_code_lock' active="1" state="ok" /><bike number="04439" bike_type="0" lock_types='analog_code_lock' active="1" state="ok" /><bike number="05698" bike_type="5" lock_types='analog_code_lock' active="1" state="ok" /><bike number="50363" bike_type="5" lock_types='analog_code_lock' active="1" state="ok" /><bike number="31300" bike_type="4" lock_types='analog_code_lock' active="1" state="ok" /></place><place uid="326142" lat="51.300582859146" lng="6.7391681671143" name="Klemensplatz" spot="1" number="5050" bikes="5" free_racks="0" bike_numbers='31046,10209,50012,51133,04925' bike_types='{"5":4,"4":1}' place_type="0" ><bike number="31046" bike_type="5" lock_types='analog_code_lock' active="1" state="ok" /><bike number="10209" bike_type="4" lock_types='analog_code_lock' active="1" state="ok" /><bike number="50012" bike_type="5" lock_types='analog_code_lock' active="1" state="ok" /><bike number="51133" bike_type="5" lock_types='analog_code_lock' active="1" state="ok" /><bike number="04925" bike_type="5" lock_types='analog_code_lock' active="1" state="ok" /></place><place uid="333392" lat="51.256261578345" lng="6.7395544052124" name="CCD" spot="1" number="5099" bikes="5" free_racks="0" bike_numbers='04426,04734,04674,10099,31060' bike_types='{"5":3,"4":2}' place_type="0" ><bike number="04426" bike_type="5" lock_types='analog_code_lock' active="1" state="ok" /><bike number="04734" bike_type="4" lock_types='analog_code_lock' active="1" state="ok" /><bike number="04674" bike_type="4" lock_types='analog_code_lock' active="1" state="ok" /><bike number="10099" bike_type="5" lock_types='analog_code_lock' active="1" state="ok" /><bike number="31060" bike_type="5" lock_types='analog_code_lock' active="1" state="ok" /></place><place uid="342105" lat="51.241685411629" lng="6.7376393079758" name="Am Seestern" spot="1" number="5097" bikes="1" free_racks="0" bike_numbers='04911' bike_types='{"5":1}' place_type="0" ><bike number="04911" bike_type="5" lock_types='analog_code_lock' active="1" state="ok" /></place><place uid="794644" lat="51.225658" lng="6.772047" name="Marktplatz" spot="1" number="5015" bikes="0" free_racks="0" maintenance="1" terminal_type="free" bike_types='{}' place_type="0" /><place uid="2342613" lat="51.247284" lng="6.794717" name="Derendorf S-Bahn" spot="1" number="5096" bikes="1" free_racks="0" terminal_type="free" bike_numbers='00739' bike_types='{"4":1}' place_type="0" ><bike number="00739" bike_type="4" lock_types='analog_code_lock' active="1" state="ok" /></place><place uid="4775611" lat="51.236798793232" lng="6.8229389190674" name="Metro AG" spot="1" number="5106" bikes="4" free_racks="0" terminal_type="free" bike_numbers='31036,20048,20520,31188' bike_types='{"5":2,"4":2}' place_type="0" ><bike number="31036" bike_type="5" lock_types='analog_code_lock' active="1" state="ok" /><bike number="20048" bike_type="4" lock_types='analog_code_lock' active="1" state="ok" /><bike number="20520" bike_type="5" lock_types='analog_code_lock' active="1" state="ok" /><bike number="31188" bike_type="4" lock_types='analog_code_lock' active="1" state="ok" /></place><place uid="7695163" lat="51.227084468167" lng="6.7719554901123" name="Burgplatz" spot="1" number="5016" bikes="2" free_racks="0" maintenance="1" terminal_type="free" bike_numbers='31100,51106' bike_types='{"5":2}' place_type="0" ><bike number="31100" bike_type="5" lock_types='analog_code_lock' active="1" state="ok" /><bike number="51106" bike_type="5" lock_types='analog_code_lock' active="1" state="ok" /></place></city><city uid="101" lat="48.5203" lng="9.05591" zoom="14" maps_icon="" alias="tuebingen" break="0" name="Tübingen" num_places="12" refresh_rate="10120" bounds='{"south_west":{"lat":48.511,"lng":9.0355},"north_east":{"lat":48.5252,"lng":9.0752}}' booked_bikes="0" set_point_bikes="86" available_bikes="52" return_to_official_only="1" bike_types='{"undefined":6,"4":10,"5":39,"71":3}' ><place uid="27497" lat="48.518549801543" lng="9.0583026409149" name="Nr. 1 / Eberhardsbrücke / Tourismusinformation" spot="1" number="4801" bikes="5" bike_racks="8" free_racks="0" terminal_type="character" bike_numbers='30084,30074,30071,30037,30097' bike_types='{"5":3,"4":1,"undefined":1}' place_type="0" ><bike number="30084" bike_type="5" lock_types='analog_code_lock' active="1" state="ok" /><bike number="30074" bike_type="5" lock_types='analog_code_lock' active="1" state="ok" /><bike number="30071" bike_type="5" lock_types='analog_code_lock' active="1" state="ok" /><bike number="30037" bike_type="4" lock_types='analog_code_lock' active="1" state="ok" /><bike number="30097" bike_type="0" lock_types='analog_code_lock' active="1" state="ok" /></place><place uid="27498" lat="48.517020095716" lng="9.0569400787353" name="Nr. 2 / Europaplatz / Hauptbahnhof" spot="1" number="4802" bikes="5" bike_racks="12" free_racks="6" terminal_type="stele" bike_numbers='30088,30079,30078,30072,30032' bike_types='{"5":4,"4":1}' place_type="0" ><bike number="30088" bike_type="5" lock_types='analog_code_lock' active="1" state="ok" /><bike number="30079" bike_type="5" lock_types='analog_code_lock' active="1" state="ok" /><bike number="30078" bike_type="5" lock_types='analog_code_lock' active="1" state="ok" /><bike number="30072" bike_type="5" lock_types='analog_code_lock' active="1" state="ok" /><bike number="30032" bike_type="4" lock_types='analog_code_lock' active="1" state="ok" /></place><place uid="27506" lat="48.523504594215" lng="9.0518009662628" name="Nr. 4 / Schnarrenbergstraße / Parkhaus König" spot="1" number="4804" bikes="5" bike_racks="12" free_racks="5" terminal_type="stele" bike_numbers='30077,30066,30065,30049,30036' bike_types='{"5":4,"4":1}' place_type="0" ><bike number="30077" bike_type="5" lock_types='analog_code_lock' active="1" state="ok" /><bike number="30066" bike_type="5" lock_types='analog_code_lock' active="1" state="ok" /><bike number="30065" bike_type="5" lock_types='analog_code_lock' active="1" state="ok" /><bike number="30049" bike_type="5" lock_types='analog_code_lock' active="1" state="ok" /><bike number="30036" bike_type="4" lock_types='analog_code_lock' active="1" state="ok" /></place><place uid="27507" lat="48.524335971242" lng="9.0585118532181" name="Nr. 6 / Silcherstraße / Universität / Alter Botanischer Garten" spot="1" number="4806" bikes="1" bike_racks="4" free_racks="3" terminal_type="stele" bike_numbers='30092' bike_types='{"undefined":1}' place_type="0" ><bike number="30092" bike_type="0" lock_types='analog_code_lock' active="1" state="ok" /></place><place uid="27508" lat="48.525217073879" lng="9.0596222877502" name="Nr. 5 / Nauklerstraße / Universität" spot="1" number="4805" bikes="3" bike_racks="8" free_racks="5" terminal_type="stele" bike_numbers='30086,30082,30098' bike_types='{"5":2,"undefined":1}' place_type="0" ><bike number="30086" bike_type="5" lock_types='analog_code_lock' active="1" state="ok" /><bike number="30082" bike_type="5" lock_types='analog_code_lock' active="1" state="ok" /><bike number="30098" bike_type="0" lock_types='analog_code_lock' active="1" state="ok" /></place><place uid="28183" lat="48.521450963414" lng="9.0577661991119" name="Nr. 3 / Österbergstraße / Lustnauertor" spot="1" number="4803" bikes="5" bike_racks="4" free_racks="0" terminal_type="stele" bike_numbers='30090,30081,30069,30040,30093' bike_types='{"5":3,"4":1,"undefined":1}' place_type="0" ><bike number="30090" bike_type="5" lock_types='analog_code_lock' active="1" state="ok" /><bike number="30081" bike_type="5" lock_types='analog_code_lock' active="1" state="ok" /><bike number="30069" bike_type="5" lock_types='analog_code_lock' active="1" state="ok" /><bike number="30040" bike_type="4" lock_types='analog_code_lock' active="1" state="ok" /><bike number="30093" bike_type="0" lock_types='analog_code_lock' active="1" state="ok" /></place><place uid="28185" lat="48.520630198404" lng="9.0497410297394" name="Nr. 8 / Haagtorplatz " spot="1" number="4808" bikes="5" bike_racks="4" free_racks="0" terminal_type="stele" bike_numbers='30073,30063,30062,30039,30100' bike_types='{"5":3,"4":1,"undefined":1}' place_type="0" ><bike number="30073" bike_type="5" lock_types='analog_code_lock' active="1" state="ok" /><bike number="30063" bike_type="5" lock_types='analog_code_lock' active="1" state="ok" /><bike number="30062" bike_type="5" lock_types='analog_code_lock' active="1" state="ok" /><bike number="30039" bike_type="4" lock_types='analog_code_lock' active="1" state="ok" /><bike number="30100" bike_type="0" lock_types='analog_code_lock' active="1" state="ok" /></place><place uid="28192" lat="48.5109764" lng="9.0354792" name="Nr. 9 / Rappenberghalde / Campingplatz" spot="1" number="4809" bikes="2" bike_racks="4" free_racks="2" terminal_type="stele" bike_numbers='30070,30059' bike_types='{"5":2}' place_type="0" ><bike number="30070" bike_type="5" lock_types='analog_code_lock' active="1" state="ok" /><bike number="30059" bike_type="5" lock_types='analog_code_lock' active="1" state="ok" /></place><place uid="209311" lat="48.512205040686" lng="9.0752005577087" name="Nr. 10 / Bei den Pferdeställen 11 / Französisches Viertel" spot="1" number="4810" bikes="3" bike_racks="4" free_racks="1" terminal_type="stele" bike_numbers='30080,30075,30044' bike_types='{"5":3}' place_type="0" ><bike number="30080" bike_type="5" lock_types='analog_code_lock' active="1" state="ok" /><bike number="30075" bike_type="5" lock_types='analog_code_lock' active="1" state="ok" /><bike number="30044" bike_type="5" lock_types='analog_code_lock' active="1" state="ok" /></place><place uid="209313" lat="48.511096269473" lng="9.061381816864" name="Nr. 11 / Parkhaus Lorettoplatz / Katharinenstraße 14" spot="1" number="4811" bikes="4" bike_racks="8" free_racks="4" terminal_type="character" bike_numbers='30087,30057,30048,30033' bike_types='{"5":3,"4":1}' place_type="0" ><bike number="30087" bike_type="5" lock_types='analog_code_lock' active="1" state="ok" /><bike number="30057" bike_type="5" lock_types='analog_code_lock' active="1" state="ok" /><bike number="30048" bike_type="5" lock_types='analog_code_lock' active="1" state="ok" /><bike number="30033" bike_type="4" lock_types='analog_code_lock' active="1" state="ok" /></place></city><city uid="139" lat="48.1358" lng="11.5356" zoom="10" maps_icon="" alias="muenchen" break="0" name="München" num_places="9" refresh_rate="10120" bounds='{"south_west":{"lat":48.0872,"lng":11.2785},"north_east":{"lat":48.1358,"lng":11.5356}}' booked_bikes="0" set_point_bikes="59" available_bikes="32" return_to_official_only="1" bike_types='{"undefined":16,"4":9,"14":14}' ><place uid="145953" lat="48.12902620096" lng="11.36381149292" name="S-Bhf Germering" spot="1" number="4487" bikes="3" bike_racks="7" free_racks="4" bike_numbers='31467,31465,31461' bike_types='{"14":3}' place_type="0" ><bike number="31467" bike_type="14" lock_types='analog_code_lock' active="1" state="ok" /><bike number="31465" bike_type="14" lock_types='analog_code_lock' active="1" state="ok" /><bike number="31461" bike_type="14" lock_types='analog_code_lock' active="1" state="ok" /></place><place uid="145954" lat="48.105597164022" lng="11.413164138794" name="S-Bhf Planegg" spot="1" number="4488" bikes="2" bike_racks="10" free_racks="2" bike_numbers='31390,31449' bike_types='{"undefined":2}' place_type="0" ><bike number="31390" bike_type="0" lock_types='analog_code_lock' active="1" state="ok" /><bike number="31449" bike_type="0" lock_types='analog_code_lock' active="1" state="ok" /></place><place uid="202396" lat="48.110654900972" lng="11.431488990784" name="Industriegebiet Steinkirchen" spot="1" number="4489" bikes="5" bike_racks="10" free_racks="3" terminal_type="character" bike_numbers='31373,31389,31391,31433,31437' bike_types='{"4":2,"undefined":2,"14":1}' place_type="0" ><bike number="31373" bike_type="4" lock_types='analog_code_lock' active="1" state="ok" /><bike number="31389" bike_type="4" lock_types='analog_code_lock' active="1" state="ok" /><bike number="31391" bike_type="0" lock_types='analog_code_lock' active="1" state="ok" /><bike number="31433" bike_type="14" lock_types='analog_code_lock' active="1" state="ok" /><bike number="31437" bike_type="0" lock_types='analog_code_lock' active="1" state="ok" /></place><place uid="204505" lat="48.095659338969" lng="11.363500356674" name="Gewerbegebiet KIM Ost" spot="1" number="4492" bikes="1" bike_racks="5" free_racks="1" bike_numbers='31379' bike_types='{"4":1}' place_type="0" ><bike number="31379" bike_type="4" lock_types='analog_code_lock' active="1" state="ok" /></place><place uid="204506" lat="48.093061717631" lng="11.358329057693" name="Gewerbegebiet KIM West" spot="1" number="4493" bikes="0" bike_racks="6" free_racks="4" bike_types='{}' place_type="0" /><place uid="215644" lat="48.08722" lng="11.27849" name="Deutsches Zentrum für Luft- und Raumfahrt" spot="1" number="4495" bikes="2" bike_racks="12" free_racks="7" terminal_type="character" bike_numbers='31381,31436' bike_types='{"4":1,"undefined":1}' place_type="0" rack_locks="1" ><bike number="31381" bike_type="4" lock_types='analog_code_lock' active="1" state="ok" /><bike number="31436" bike_type="0" lock_types='analog_code_lock' active="1" state="ok" /></place><place uid="344579" lat="48.091688" lng="11.283101" name="ASTO Park" spot="1" number="4497" bikes="5" bike_racks="12" free_racks="5" terminal_type="character" bike_numbers='31372,31384,31407,31402,31397' bike_types='{"4":2,"14":1,"undefined":2}' place_type="0" rack_locks="1" ><bike number="31372" bike_type="4" lock_types='analog_code_lock' active="1" state="ok" /><bike number="31384" bike_type="4" lock_types='analog_code_lock' active="1" state="ok" /><bike number="31407" bike_type="14" lock_types='analog_code_lock' active="1" state="ok" /><bike number="31402" bike_type="0" lock_types='analog_code_lock' active="1" state="ok" /><bike number="31397" bike_type="0" lock_types='analog_code_lock' active="1" state="ok" /></place><place uid="399959" lat="48.098967" lng="11.28869" name="S-Bhf Neugilching" spot="1" number="4494" bikes="5" bike_racks="12" free_racks="1" bike_numbers='31352,31377,31383,31403,31398' bike_types='{"14":2,"4":2,"undefined":1}' place_type="0" rack_locks="1" ><bike number="31352" bike_type="14" lock_types='analog_code_lock' active="1" state="ok" /><bike number="31377" bike_type="4" lock_types='analog_code_lock' active="1" state="ok" /><bike number="31383" bike_type="4" lock_types='analog_code_lock' active="1" state="ok" /><bike number="31403" bike_type="0" lock_types='analog_code_lock' active="1" state="ok" /><bike number="31398" bike_type="14" lock_types='analog_code_lock' active="1" state="ok" /></place></city><city uid="147" lat="54.7804" lng="9.43571" zoom="14" maps_icon="" alias="flensburg" break="0" name="Flensburg" num_places="17" refresh_rate="10120" bounds='{"south_west":{"lat":54.775,"lng":9.4189},"north_east":{"lat":54.8272,"lng":9.4724}}' booked_bikes="0" set_point_bikes="42" available_bikes="43" return_to_official_only="1" bike_types='{"4":38}' ><place uid="45757" lat="54.785171558697" lng="9.4379425048828" name="ZOB " spot="1" number="2907" bikes="5" free_racks="0" terminal_type="free" bike_numbers='30538,30528,30522,30520,30504' bike_types='{"4":5}' place_type="0" ><bike number="30538" bike_type="4" lock_types='analog_code_lock' active="1" state="ok" /><bike number="30528" bike_type="4" lock_types='analog_code_lock' active="1" state="ok" /><bike number="30522" bike_type="4" lock_types='analog_code_lock' active="1" state="ok" /><bike number="30520" bike_type="4" lock_types='analog_code_lock' active="1" state="ok" /><bike number="30504" bike_type="4" lock_types='analog_code_lock' active="1" state="ok" /></place><place uid="45760" lat="54.789514400513" lng="9.4337582588196" name="Willy-Brandt-Platz" spot="1" number="2904" bikes="4" free_racks="0" terminal_type="free" bike_numbers='30543,30523,30517,30513' bike_types='{"4":4}' place_type="0" ><bike number="30543" bike_type="4" lock_types='analog_code_lock' active="1" state="ok" /><bike number="30523" bike_type="4" lock_types='analog_code_lock' active="1" state="ok" /><bike number="30517" bike_type="4" lock_types='analog_code_lock' active="1" state="ok" /><bike number="30513" bike_type="4" lock_types='analog_code_lock' active="1" state="ok" /></place><place uid="45765" lat="54.81550911024" lng="9.4723874330521" name="Twedter Plack" spot="1" number="2902" bikes="3" free_racks="0" terminal_type="free" bike_numbers='30541,30535,30530' bike_types='{"4":3}' place_type="0" ><bike number="30541" bike_type="4" lock_types='analog_code_lock' active="1" state="ok" /><bike number="30535" bike_type="4" lock_types='analog_code_lock' active="1" state="ok" /><bike number="30530" bike_type="4" lock_types='analog_code_lock' active="1" state="ok" /></place><place uid="47493" lat="54.774968376204" lng="9.4373738765717" name="Hauptbahnhof" spot="1" number="2901" bikes="2" free_racks="0" terminal_type="free" bike_numbers='30547,30540' bike_types='{"4":2}' place_type="0" ><bike number="30547" bike_type="4" lock_types='analog_code_lock' active="1" state="ok" /><bike number="30540" bike_type="4" lock_types='analog_code_lock' active="1" state="ok" /></place><place uid="48465" lat="54.775667645507" lng="9.4526624679565" name="Campus Unigelände" spot="1" number="2903" bikes="5" free_racks="0" terminal_type="free" bike_numbers='30549,30542,30529,30527,30508' bike_types='{"4":5}' place_type="0" ><bike number="30549" bike_type="4" lock_types='analog_code_lock' active="1" state="ok" /><bike number="30542" bike_type="4" lock_types='analog_code_lock' active="1" state="ok" /><bike number="30529" bike_type="4" lock_types='analog_code_lock' active="1" state="ok" /><bike number="30527" bike_type="4" lock_types='analog_code_lock' active="1" state="ok" /><bike number="30508" bike_type="4" lock_types='analog_code_lock' active="1" state="ok" /></place><place uid="48469" lat="54.782504995949" lng="9.4368588924408" name="Dr.-Todsen-Str. / Ecke Angelburger Str." spot="1" number="2905" bikes="1" free_racks="0" terminal_type="free" bike_numbers='30518' bike_types='{"4":1}' place_type="0" ><bike number="30518" bike_type="4" lock_types='analog_code_lock' active="1" state="ok" /></place><place uid="48470" lat="54.795712349674" lng="9.4308829307556" name="Nordertorplatz / Phänomenta" spot="1" number="2908" bikes="5" free_racks="0" terminal_type="free" bike_numbers='30546,30536,30533,30531,30516' bike_types='{"4":5}' place_type="0" ><bike number="30546" bike_type="4" lock_types='analog_code_lock' active="1" state="ok" /><bike number="30536" bike_type="4" lock_types='analog_code_lock' active="1" state="ok" /><bike number="30533" bike_type="4" lock_types='analog_code_lock' active="1" state="ok" /><bike number="30531" bike_type="4" lock_types='analog_code_lock' active="1" state="ok" /><bike number="30516" bike_type="4" lock_types='analog_code_lock' active="1" state="ok" /></place><place uid="48471" lat="54.790801078888" lng="9.4378781318665" name="Fischereihafen (Ostseite)" spot="1" number="2900" bikes="3" free_racks="0" terminal_type="free" bike_numbers='30545,30521,30519' bike_types='{"4":3}' place_type="0" ><bike number="30545" bike_type="4" lock_types='analog_code_lock' active="1" state="ok" /><bike number="30521" bike_type="4" lock_types='analog_code_lock' active="1" state="ok" /><bike number="30519" bike_type="4" lock_types='analog_code_lock' active="1" state="ok" /></place><place uid="242867" lat="54.82719463144" lng="9.4189095497131" name="Wassersleben " spot="1" number="2909" bikes="5" free_racks="0" terminal_type="free" bike_numbers='30548,30539,30509,30501,30551' bike_types='{"4":5}' place_type="0" ><bike number="30548" bike_type="4" lock_types='analog_code_lock' active="1" state="ok" /><bike number="30539" bike_type="4" lock_types='analog_code_lock' active="1" state="ok" /><bike number="30509" bike_type="4" lock_types='analog_code_lock' active="1" state="ok" /><bike number="30501" bike_type="4" lock_types='analog_code_lock' active="1" state="ok" /><bike number="30551" bike_type="4" lock_types='analog_code_lock' active="1" state="ok" /></place></city><city uid="155" lat="48.4721" lng="7.94243" zoom="14" maps_icon="" alias="offenburg" break="0" name="Offenburg" num_places="22" refresh_rate="10120" bounds='{"south_west":{"lat":48.4643,"lng":7.925},"north_east":{"lat":48.4815,"lng":7.9655}}' booked_bikes="0" set_point_bikes="100" available_bikes="67" return_to_official_only="1" bike_types='{"4":2,"15":67,"17":2}' ><place uid="52511" lat="48.475481865812" lng="7.9452180862427" name="Bahnhof / ZOB" spot="1" number="4901" bikes="5" bike_racks="27" free_racks="9" terminal_type="7inch" bike_numbers='31714,31695,31688,31727,31728' bike_types='{"15":5}' place_type="0" ><bike number="31714" bike_type="15" lock_types='analog_code_lock' active="1" state="ok" boardcomputer="6891" /><bike number="31695" bike_type="15" lock_types='analog_code_lock' active="1" state="ok" boardcomputer="6815" /><bike number="31688" bike_type="15" lock_types='analog_code_lock' active="1" state="ok" boardcomputer="6820" /><bike number="31727" bike_type="15" lock_types='analog_code_lock' active="1" state="ok" boardcomputer="7013" /><bike number="31728" bike_type="15" lock_types='analog_code_lock' active="1" state="ok" boardcomputer="7024" /></place><place uid="52513" lat="48.475197361824" lng="7.9472780227661" name="Bahnhof / Osteingang" spot="1" number="4902" bikes="5" bike_racks="10" free_racks="0" terminal_type="pult" bike_numbers='31721,31712,31709,31694,31693' bike_types='{"15":5}' place_type="0" ><bike number="31721" bike_type="15" lock_types='analog_code_lock' active="1" state="ok" boardcomputer="6793" /><bike number="31712" bike_type="15" lock_types='analog_code_lock' active="1" state="ok" boardcomputer="6837" /><bike number="31709" bike_type="15" lock_types='analog_code_lock' active="1" state="ok" boardcomputer="6800" /><bike number="31694" bike_type="15" lock_types='analog_code_lock' active="1" state="ok" boardcomputer="6804" /><bike number="31693" bike_type="15" lock_types='analog_code_lock' active="1" state="ok" boardcomputer="6885" /></place><place uid="52514" lat="48.472124617097" lng="7.9438233375549" name="Gustav-Rée-Anlage" spot="1" number="4903" bikes="0" bike_racks="5" free_racks="5" terminal_type="pult" bike_types='{}' place_type="0" /><place uid="52515" lat="48.468639102696" lng="7.9426860809326" name="Stadtbuckel" spot="1" number="4904" bikes="5" bike_racks="20" free_racks="15" terminal_type="pult" bike_numbers='31720,31719,31704,31703,31729' bike_types='{"15":5}' place_type="0" ><bike number="31720" bike_type="15" lock_types='analog_code_lock' active="1" state="ok" boardcomputer="6816" /><bike number="31719" bike_type="15" lock_types='analog_code_lock' active="1" state="ok" boardcomputer="6892" /><bike number="31704" bike_type="15" lock_types='analog_code_lock' active="1" state="ok" boardcomputer="6757" /><bike number="31703" bike_type="15" lock_types='analog_code_lock' active="1" state="ok" boardcomputer="6814" /><bike number="31729" bike_type="15" lock_types='analog_code_lock' active="1" state="ok" boardcomputer="7110" /></place><place uid="52516" lat="48.471274" lng="7.940743" name="City-Parkhaus" spot="1" number="4905" bikes="3" bike_racks="5" free_racks="2" terminal_type="pult" bike_numbers='31698,31651,31667' bike_types='{"15":3}' place_type="0" ><bike number="31698" bike_type="15" lock_types='analog_code_lock' active="1" state="ok" boardcomputer="6801" /><bike number="31651" bike_type="15" lock_types='analog_code_lock' active="1" state="ok" boardcomputer="9041" /><bike number="31667" bike_type="15" lock_types='analog_code_lock' active="1" state="ok" boardcomputer="9539" /></place><place uid="52517" lat="48.465252945167" lng="7.939338684082" name="Landratsamt / Medienpark" spot="1" number="4906" bikes="0" bike_racks="10" free_racks="10" terminal_type="pult" bike_types='{}' place_type="0" /><place uid="52518" lat="48.470519" lng="7.94867" name="BürgerBüroBauen / Technisches Rathaus" spot="1" number="4907" bikes="2" bike_racks="4" free_racks="2" terminal_type="pult" bike_numbers='31717,31650' bike_types='{"15":2}' place_type="0" ><bike number="31717" bike_type="15" lock_types='analog_code_lock' active="1" state="ok" boardcomputer="6799" /><bike number="31650" bike_type="15" lock_types='analog_code_lock' active="1" state="ok" boardcomputer="9511" /></place><place uid="52519" lat="48.468938" lng="7.955748" name="Kulturforum" spot="1" number="4908" bikes="1" bike_racks="4" free_racks="3" terminal_type="pult" bike_numbers='31643' bike_types='{"15":1}' place_type="0" ><bike number="31643" bike_type="15" lock_types='analog_code_lock' active="1" state="ok" boardcomputer="9496" /></place><place uid="52520" lat="48.473490304394" lng="7.9501104354858" name="Schillerplatz" spot="1" number="4909" bikes="1" bike_racks="4" free_racks="3" terminal_type="pult" bike_numbers='31668' bike_types='{"15":1}' place_type="0" ><bike number="31668" bike_type="15" lock_types='analog_code_lock' active="1" state="ok" boardcomputer="9505" /></place><place uid="52521" lat="48.476875912291" lng="7.954638004303" name="Ortenau Klinikum" spot="1" number="4910" bikes="1" bike_racks="5" free_racks="4" terminal_type="pult" bike_numbers='31677' bike_types='{"15":1}' place_type="0" ><bike number="31677" bike_type="15" lock_types='analog_code_lock' active="1" state="ok" boardcomputer="9268" /></place><place uid="52522" lat="48.481509" lng="7.957641" name="EDEKA / Sparkasse" spot="1" number="4911" bikes="0" bike_racks="5" free_racks="5" terminal_type="pult" bike_types='{}' place_type="0" /><place uid="52523" lat="48.464883015109" lng="7.9323971271515" name="Oberrheinhalle" spot="1" number="4912" bikes="3" bike_racks="10" free_racks="7" terminal_type="pult" bike_numbers='31713,31700,31648' bike_types='{"15":3}' place_type="0" ><bike number="31713" bike_type="15" lock_types='analog_code_lock' active="1" state="ok" boardcomputer="6758" /><bike number="31700" bike_type="15" lock_types='analog_code_lock' active="1" state="ok" boardcomputer="6888" /><bike number="31648" bike_type="15" lock_types='analog_code_lock' active="1" state="ok" boardcomputer="9543" /></place><place uid="52525" lat="48.479676" lng="7.941014" name="Zentrum Nordweststadt" spot="1" number="4913" bikes="2" bike_racks="5" free_racks="3" terminal_type="pult" bike_numbers='31696,31658' bike_types='{"15":2}' place_type="0" ><bike number="31696" bike_type="15" lock_types='analog_code_lock' active="1" state="ok" boardcomputer="6813" /><bike number="31658" bike_type="15" lock_types='analog_code_lock' active="1" state="ok" boardcomputer="9562" /></place><place uid="183656" lat="48.472672319022" lng="7.9249513149262" name="E-Center" spot="1" number="4914" bikes="2" bike_racks="6" free_racks="4" terminal_type="pult" bike_numbers='31644,31669' bike_types='{"15":2}' place_type="0" ><bike number="31644" bike_type="15" lock_types='analog_code_lock' active="1" state="ok" boardcomputer="9558" /><bike number="31669" bike_type="15" lock_types='analog_code_lock' active="1" state="ok" boardcomputer="9508" /></place><place uid="183657" lat="48.469565" lng="7.965473" name="St. Josefsklinik" spot="1" number="4915" bikes="3" bike_racks="6" free_racks="3" terminal_type="pult" bike_numbers='31697,31660,31673' bike_types='{"15":3}' place_type="0" ><bike number="31697" bike_type="15" lock_types='analog_code_lock' active="1" state="ok" boardcomputer="6838" /><bike number="31660" bike_type="15" lock_types='analog_code_lock' active="1" state="ok" boardcomputer="9019" /><bike number="31673" bike_type="15" lock_types='analog_code_lock' active="1" state="ok" boardcomputer="9502" /></place><place uid="336452" lat="48.479372297763" lng="7.9532217979431" name="Oststadt-Schulen" spot="1" number="4916" bikes="1" bike_racks="6" free_racks="5" terminal_type="stele" bike_numbers='31655' bike_types='{"15":1}' place_type="0" ><bike number="31655" bike_type="15" lock_types='analog_code_lock' active="1" state="ok" boardcomputer="9050" /></place><place uid="376545" lat="48.464313886678" lng="7.9320216178894" name="E-Bike-Station Messe" spot="1" number="4917" bikes="3" bike_racks="3" free_racks="0" terminal_type="7inch" bike_numbers='31723,31722,30156' bike_types='{"17":2,"15":1}' place_type="14" rack_locks="1" ><bike number="31723" bike_type="17" lock_types='fork_lock' active="1" state="ok" electric_lock="1" boardcomputer="8161" /><bike number="31722" bike_type="17" lock_types='fork_lock' active="1" state="ok" electric_lock="1" boardcomputer="8171" /><bike number="30156" bike_type="15" lock_types='fork_lock' active="1" state="ok" electric_lock="1" boardcomputer="27077" /></place><place uid="1886894" lat="48.464644693355" lng="7.9321020841599" name="Messe" spot="1" number="4918" bikes="1" bike_racks="5" free_racks="4" terminal_type="traffic_sign" bike_numbers='31656' bike_types='{"15":1}' place_type="0" ><bike number="31656" bike_type="15" lock_types='analog_code_lock' active="1" state="ok" boardcomputer="9025" /></place></city><city uid="158" lat="52.3997" lng="13.0676" zoom="13" maps_icon="" alias="potsdam" break="0" name="Potsdam" num_places="76" refresh_rate="10120" bounds='{"south_west":{"lat":52.2851,"lng":12.6829},"north_east":{"lat":52.5136,"lng":13.4248}}' booked_bikes="0" set_point_bikes="271" available_bikes="165" return_to_official_only="1" bike_types='{"undefined":9,"4":25,"14":161,"15":4}' ><place uid="57730" lat="52.409009990671" lng="12.972434163094" name="Bahnhof Golm" spot="1" number="5201" bikes="1" bike_racks="8" free_racks="7" terminal_type="stele" bike_numbers='33022' bike_types='{"14":1}' place_type="0" ><bike number="33022" bike_type="14" lock_types='analog_code_lock' active="1" state="ok" /></place><place uid="57731" lat="52.401819930254" lng="13.010939955711" name="Neues Palais / Universität" spot="1" number="5202" bikes="5" bike_racks="10" free_racks="5" terminal_type="stele" bike_numbers='32033,33148,33035,33220,33219' bike_types='{"4":2,"14":2,"undefined":1}' place_type="0" ><bike number="32033" bike_type="4" lock_types='analog_code_lock' active="1" state="ok" /><bike number="33148" bike_type="14" lock_types='analog_code_lock' active="1" state="ok" /><bike number="33035" bike_type="14" lock_types='analog_code_lock' active="1" state="ok" /><bike number="33220" bike_type="4" lock_types='analog_code_lock' active="1" state="ok" /><bike number="33219" bike_type="0" lock_types='analog_code_lock' active="1" state="ok" /></place><place uid="57733" lat="52.392887176391" lng="13.036608695984" name="Bahnhof Charlottenhof" spot="1" number="5203" bikes="4" bike_racks="6" free_racks="2" terminal_type="stele" bike_numbers='32079,33139,33097,33077' bike_types='{"4":1,"14":3}' place_type="0" ><bike number="32079" bike_type="4" lock_types='analog_code_lock' active="1" state="ok" /><bike number="33139" bike_type="14" lock_types='analog_code_lock' active="1" state="ok" /><bike number="33097" bike_type="14" lock_types='analog_code_lock' active="1" state="ok" /><bike number="33077" bike_type="14" lock_types='analog_code_lock' active="1" state="ok" /></place><place uid="57734" lat="52.413843068523" lng="13.032569289207" name="Kirschallee / Pappelallee" spot="1" number="5204" bikes="3" bike_racks="12" free_racks="8" terminal_type="stele" bike_numbers='33082,33203,33202' bike_types='{"14":3}' place_type="0" ><bike number="33082" bike_type="14" lock_types='analog_code_lock' active="1" state="ok" /><bike number="33203" bike_type="14" lock_types='analog_code_lock' active="1" state="ok" /><bike number="33202" bike_type="14" lock_types='analog_code_lock' active="1" state="ok" /></place><place uid="57741" lat="52.41586187516" lng="13.041211366653" name="Volkspark Süd" spot="1" number="5205" bikes="1" bike_racks="8" free_racks="7" terminal_type="stele" bike_numbers='33129' bike_types='{"14":1}' place_type="0" ><bike number="33129" bike_type="14" lock_types='analog_code_lock' active="1" state="ok" /></place><place uid="57743" lat="52.39689388252" lng="13.043625354767" name="Zeppelinstraße / Feuerbachstr. / Breite Straße" spot="1" number="5206" bikes="3" bike_racks="14" free_racks="11" terminal_type="stele" bike_numbers='33025,33240,33236' bike_types='{"14":1,"4":2}' place_type="0" ><bike number="33025" bike_type="14" lock_types='analog_code_lock' active="1" state="ok" /><bike number="33240" bike_type="4" lock_types='analog_code_lock' active="1" state="ok" /><bike number="33236" bike_type="4" lock_types='analog_code_lock' active="1" state="ok" /></place><place uid="57744" lat="52.39888400655" lng="13.047584295273" name="Luisenplatz Süd / Sparkasse" spot="1" number="5207" bikes="3" bike_racks="10" free_racks="7" terminal_type="stele" bike_numbers='33101,33047,33175' bike_types='{"14":3}' place_type="0" ><bike number="33101" bike_type="14" lock_types='analog_code_lock' active="1" state="ok" /><bike number="33047" bike_type="14" lock_types='analog_code_lock' active="1" state="ok" /><bike number="33175" bike_type="14" lock_types='analog_code_lock' active="1" state="ok" /></place><place uid="57747" lat="52.402117766672" lng="13.052423000336" name="Jägertor / Lindenstr." spot="1" number="5208" bikes="1" bike_racks="6" free_racks="5" terminal_type="stele" bike_numbers='33015' bike_types='{"14":1}' place_type="0" ><bike number="33015" bike_type="14" lock_types='analog_code_lock' active="1" state="ok" /></place><place uid="57749" lat="52.399204774721" lng="13.052948713303" name="Dortusstraße / Charlottenstraße" spot="1" number="5210" bikes="1" bike_racks="6" free_racks="5" terminal_type="stele" bike_numbers='33093' bike_types='{"14":1}' place_type="0" ><bike number="33093" bike_type="14" lock_types='analog_code_lock' active="1" state="ok" /></place><place uid="57750" lat="52.392880629188" lng="13.066005706787" name="Hauptbahnhof Nord" spot="1" number="5211" bikes="3" bike_racks="14" free_racks="11" terminal_type="stele" bike_numbers='33132,33069,33034' bike_types='{"14":3}' place_type="0" ><bike number="33132" bike_type="14" lock_types='analog_code_lock' active="1" state="ok" /><bike number="33069" bike_type="14" lock_types='analog_code_lock' active="1" state="ok" /><bike number="33034" bike_type="14" lock_types='analog_code_lock' active="1" state="ok" /></place><place uid="57751" lat="52.405747281904" lng="13.058125376701" name="Stadthaus Potsdam" spot="1" number="5212" bikes="4" bike_racks="8" free_racks="4" terminal_type="stele" bike_numbers='32143,33127,33103,33188' bike_types='{"14":4}' place_type="0" ><bike number="32143" bike_type="14" lock_types='analog_code_lock' active="1" state="ok" /><bike number="33127" bike_type="14" lock_types='analog_code_lock' active="1" state="ok" /><bike number="33103" bike_type="14" lock_types='analog_code_lock' active="1" state="ok" /><bike number="33188" bike_type="14" lock_types='analog_code_lock' active="1" state="ok" /></place><place uid="57752" lat="52.36602237923" lng="13.093589544296" name="Waldstadt / Heinrich-Mann-Allee" spot="1" number="5213" bikes="5" bike_racks="12" free_racks="5" terminal_type="stele" bike_numbers='33144,33085,33185,33234,33212' bike_types='{"14":3,"4":2}' place_type="0" ><bike number="33144" bike_type="14" lock_types='analog_code_lock' active="1" state="ok" /><bike number="33085" bike_type="14" lock_types='analog_code_lock' active="1" state="ok" /><bike number="33185" bike_type="14" lock_types='analog_code_lock' active="1" state="ok" /><bike number="33234" bike_type="4" lock_types='analog_code_lock' active="1" state="ok" /><bike number="33212" bike_type="4" lock_types='analog_code_lock' active="1" state="ok" /></place><place uid="57753" lat="52.399201501588" lng="13.057975172996" name="Platz der Einheit" spot="1" number="5214" bikes="1" bike_racks="10" free_racks="9" terminal_type="stele" bike_numbers='33002' bike_types='{"14":1}' place_type="0" ><bike number="33002" bike_type="14" lock_types='analog_code_lock' active="1" state="ok" /></place><place uid="57754" lat="52.395237559551" lng="13.058441877365" name="Filmmuseum" spot="1" number="5215" bikes="5" bike_racks="10" free_racks="5" terminal_type="stele" bike_numbers='33065,33006,33178,33151,33237' bike_types='{"14":4,"4":1}' place_type="0" ><bike number="33065" bike_type="14" lock_types='analog_code_lock' active="1" state="ok" /><bike number="33006" bike_type="14" lock_types='analog_code_lock' active="1" state="ok" /><bike number="33178" bike_type="14" lock_types='analog_code_lock' active="1" state="ok" /><bike number="33151" bike_type="14" lock_types='analog_code_lock' active="1" state="ok" /><bike number="33237" bike_type="4" lock_types='analog_code_lock' active="1" state="ok" /></place><place uid="57755" lat="52.403806559326" lng="13.07514667511" name="Schiffbauergasse" spot="1" number="5216" bikes="2" bike_racks="14" free_racks="12" terminal_type="stele" bike_numbers='33051,33039' bike_types='{"14":2}' place_type="0" ><bike number="33051" bike_type="14" lock_types='analog_code_lock' active="1" state="ok" /><bike number="33039" bike_type="14" lock_types='analog_code_lock' active="1" state="ok" /></place><place uid="57756" lat="52.390931974697" lng="13.067122846842" name="Hauptbahnhof Süd / Taxistand" spot="1" number="5217" bikes="5" bike_racks="12" free_racks="7" terminal_type="stele" bike_numbers='33147,33100,33056,33196,33168' bike_types='{"14":5}' place_type="0" ><bike number="33147" bike_type="14" lock_types='analog_code_lock' active="1" state="ok" /><bike number="33100" bike_type="14" lock_types='analog_code_lock' active="1" state="ok" /><bike number="33056" bike_type="14" lock_types='analog_code_lock' active="1" state="ok" /><bike number="33196" bike_type="14" lock_types='analog_code_lock' active="1" state="ok" /><bike number="33168" bike_type="14" lock_types='analog_code_lock' active="1" state="ok" /></place><place uid="57758" lat="52.392245545868" lng="13.091722726822" name="Rathaus Babelsberg" spot="1" number="5218" bikes="2" bike_racks="8" free_racks="5" terminal_type="stele" bike_numbers='33184,33218' bike_types='{"14":1,"4":1}' place_type="0" ><bike number="33184" bike_type="14" lock_types='analog_code_lock' active="1" state="ok" /><bike number="33218" bike_type="4" lock_types='analog_code_lock' active="1" state="ok" /></place><place uid="57759" lat="52.389168208618" lng="13.09995174408" name="Kopernikusstraße" spot="1" number="5219" bikes="1" bike_racks="8" free_racks="7" terminal_type="stele" bike_numbers='33153' bike_types='{"14":1}' place_type="0" ><bike number="33153" bike_type="14" lock_types='analog_code_lock' active="1" state="ok" /></place><place uid="57762" lat="52.394288255516" lng="13.102462291718" name="Plantagenplatz" spot="1" number="5220" bikes="0" bike_racks="8" free_racks="8" terminal_type="stele" bike_types='{}' place_type="0" /><place uid="57763" lat="52.393980545688" lng="13.129005432129" name="Bahnhof Griebnitzsee" spot="1" number="5221" bikes="4" bike_racks="8" free_racks="4" terminal_type="stele" bike_numbers='33140,33070,33061,33165' bike_types='{"14":4}' place_type="0" ><bike number="33140" bike_type="14" lock_types='analog_code_lock' active="1" state="ok" /><bike number="33070" bike_type="14" lock_types='analog_code_lock' active="1" state="ok" /><bike number="33061" bike_type="14" lock_types='analog_code_lock' active="1" state="ok" /><bike number="33165" bike_type="14" lock_types='analog_code_lock' active="1" state="ok" /></place><place uid="98428" lat="52.388333362048" lng="13.117611408234" name="Filmuniversität Babelsberg" spot="1" number="5223" bikes="1" bike_racks="12" free_racks="10" terminal_type="stele" bike_numbers='33171' bike_types='{"14":1}' place_type="0" ><bike number="33171" bike_type="14" lock_types='analog_code_lock' active="1" state="ok" /></place><place uid="98430" lat="52.394864387297" lng="13.076442182064" name="Humboldtring / Zentrum Ost" spot="1" number="5224" bikes="1" bike_racks="10" free_racks="9" terminal_type="stele" bike_numbers='33223' bike_types='{"4":1}' place_type="0" ><bike number="33223" bike_type="4" lock_types='analog_code_lock' active="1" state="ok" /></place><place uid="120873" lat="52.402654521733" lng="13.058066368103" name="Friedrich-Ebert-Straße / Mittelstraße" spot="1" number="5222" bikes="1" bike_racks="10" free_racks="9" terminal_type="stele" bike_numbers='33094' bike_types='{"14":1}' place_type="0" ><bike number="33094" bike_type="14" lock_types='analog_code_lock' active="1" state="ok" /></place><place uid="400126" lat="52.412186" lng="13.050658" name="Fachhochschule Potsdam" spot="1" number="5228" bikes="1" bike_racks="12" free_racks="11" terminal_type="stele" bike_numbers='33190' bike_types='{"14":1}' place_type="0" ><bike number="33190" bike_type="14" lock_types='analog_code_lock' active="1" state="ok" /></place><place uid="775389" lat="52.369246" lng="13.140434" name="Gartenstadt Drewitz" spot="1" number="5245" bikes="5" bike_racks="6" free_racks="1" terminal_type="stele" bike_numbers='07042,33123,33088,33050,33158' bike_types='{"14":5}' place_type="0" ><bike number="07042" bike_type="14" lock_types='analog_code_lock' active="1" state="ok" /><bike number="33123" bike_type="14" lock_types='analog_code_lock' active="1" state="ok" /><bike number="33088" bike_type="14" lock_types='analog_code_lock' active="1" state="ok" /><bike number="33050" bike_type="14" lock_types='analog_code_lock' active="1" state="ok" /><bike number="33158" bike_type="14" lock_types='analog_code_lock' active="1" state="ok" /></place><place uid="775411" lat="52.311671" lng="12.929674" name="Ferch, Rathaus" spot="1" number="5246" bikes="5" bike_racks="5" free_racks="0" terminal_type="stele" bike_numbers='33090,33079,33186,33238,33253' bike_types='{"14":3,"4":1,"undefined":1}' place_type="0" ><bike number="33090" bike_type="14" lock_types='analog_code_lock' active="1" state="ok" /><bike number="33079" bike_type="14" lock_types='analog_code_lock' active="1" state="ok" /><bike number="33186" bike_type="14" lock_types='analog_code_lock' active="1" state="ok" /><bike number="33238" bike_type="4" lock_types='analog_code_lock' active="1" state="ok" /><bike number="33253" bike_type="0" lock_types='analog_code_lock' active="1" state="ok" /></place><place uid="775416" lat="52.362954" lng="12.97374" name="Geltow, Wimmerplatz" spot="1" number="5248" bikes="3" bike_racks="5" free_racks="2" terminal_type="stele" bike_numbers='33137,33126,33221' bike_types='{"14":2,"4":1}' place_type="0" ><bike number="33137" bike_type="14" lock_types='analog_code_lock' active="1" state="ok" /><bike number="33126" bike_type="14" lock_types='analog_code_lock' active="1" state="ok" /><bike number="33221" bike_type="4" lock_types='analog_code_lock' active="1" state="ok" /></place><place uid="776855" lat="52.348165" lng="13.000507" name="Caputh, Schloss" spot="1" number="5247" bikes="5" bike_racks="5" free_racks="0" maintenance="1" terminal_type="stele" bike_numbers='32087,33133,33076,33167,33248' bike_types='{"4":2,"14":2,"undefined":1}' place_type="0" ><bike number="32087" bike_type="4" lock_types='analog_code_lock' active="1" state="ok" /><bike number="33133" bike_type="4" lock_types='analog_code_lock' active="1" state="ok" /><bike number="33076" bike_type="14" lock_types='analog_code_lock' active="1" state="ok" /><bike number="33167" bike_type="14" lock_types='analog_code_lock' active="1" state="ok" /><bike number="33248" bike_type="0" lock_types='analog_code_lock' active="1" state="ok" /></place><place uid="1832456" lat="52.375618825955" lng="13.128393888474" name="Johannes-Kepler-Platz" spot="1" number="5244" bikes="1" bike_racks="6" free_racks="5" terminal_type="stele" bike_numbers='33121' bike_types='{"14":1}' place_type="0" ><bike number="33121" bike_type="14" lock_types='analog_code_lock' active="1" state="ok" /></place><place uid="1832709" lat="52.382583950651" lng="13.121457695961" name="Bahnhof Medienstadt" spot="1" number="5242" bikes="5" bike_racks="6" free_racks="1" terminal_type="stele" bike_numbers='33125,33109,33091,33172,33226' bike_types='{"14":4,"undefined":1}' place_type="0" ><bike number="33125" bike_type="14" lock_types='analog_code_lock' active="1" state="ok" /><bike number="33109" bike_type="14" lock_types='analog_code_lock' active="1" state="ok" /><bike number="33091" bike_type="14" lock_types='analog_code_lock' active="1" state="ok" /><bike number="33172" bike_type="14" lock_types='analog_code_lock' active="1" state="ok" /><bike number="33226" bike_type="0" lock_types='analog_code_lock' active="1" state="ok" /></place><place uid="2038671" lat="52.381999" lng="13.14136" name="Steinstraße" spot="1" number="5243" bikes="2" bike_racks="6" free_racks="4" terminal_type="stele" bike_numbers='33044,33244' bike_types='{"14":1,"undefined":1}' place_type="0" ><bike number="33044" bike_type="14" lock_types='analog_code_lock' active="1" state="ok" /><bike number="33244" bike_type="0" lock_types='analog_code_lock' active="1" state="ok" /></place><place uid="2432655" lat="52.316098" lng="13.031467" name="Bahnhof Michendorf" spot="1" number="5249" bikes="1" bike_racks="4" free_racks="2" terminal_type="stele" bike_numbers='33169' bike_types='{"14":1}' place_type="0" ><bike number="33169" bike_type="14" lock_types='analog_code_lock' active="1" state="ok" /></place><place uid="2432674" lat="52.331204" lng="13.067151" name="Bahnhof Wilhelmshorst" spot="1" number="5250" bikes="2" bike_racks="4" free_racks="2" terminal_type="stele" bike_numbers='33063,33208' bike_types='{"14":2}' place_type="0" ><bike number="33063" bike_type="14" lock_types='analog_code_lock' active="1" state="ok" /><bike number="33208" bike_type="14" lock_types='analog_code_lock' active="1" state="ok" /></place><place uid="2432681" lat="52.285108" lng="13.0622" name="Parkplatz Wildenbruch" spot="1" number="5251" bikes="5" bike_racks="4" free_racks="0" terminal_type="stele" bike_numbers='32045,32100,33122,33064,33254' bike_types='{"4":1,"14":4}' place_type="0" ><bike number="32045" bike_type="4" lock_types='analog_code_lock' active="1" state="ok" /><bike number="32100" bike_type="14" lock_types='analog_code_lock' active="1" state="ok" /><bike number="33122" bike_type="14" lock_types='analog_code_lock' active="1" state="ok" /><bike number="33064" bike_type="14" lock_types='analog_code_lock' active="1" state="ok" /><bike number="33254" bike_type="14" lock_types='analog_code_lock' active="1" state="ok" /></place><place uid="3120944" lat="52.394316" lng="13.015333" name="Bahnhof Sanssouci" spot="1" number="5225" bikes="5" free_racks="0" terminal_type="free" bike_numbers='33145,33118,33081,33004,33170' bike_types='{"14":5}' place_type="0" ><bike number="33145" bike_type="14" lock_types='analog_code_lock' active="1" state="ok" /><bike number="33118" bike_type="14" lock_types='analog_code_lock' active="1" state="ok" /><bike number="33081" bike_type="14" lock_types='analog_code_lock' active="1" state="ok" /><bike number="33004" bike_type="14" lock_types='analog_code_lock' active="1" state="ok" /><bike number="33170" bike_type="14" lock_types='analog_code_lock' active="1" state="ok" /></place><place uid="3121421" lat="52.37391" lng="13.011222" name="Bahnhof Pirschheide" spot="1" number="5226" bikes="5" free_racks="0" terminal_type="free" bike_numbers='33110,33040,33038,33180,33245' bike_types='{"14":4,"undefined":1}' place_type="0" ><bike number="33110" bike_type="14" lock_types='analog_code_lock' active="1" state="ok" /><bike number="33040" bike_type="14" lock_types='analog_code_lock' active="1" state="ok" /><bike number="33038" bike_type="14" lock_types='analog_code_lock' active="1" state="ok" /><bike number="33180" bike_type="14" lock_types='analog_code_lock' active="1" state="ok" /><bike number="33245" bike_type="0" lock_types='analog_code_lock' active="1" state="ok" /></place><place uid="3121458" lat="52.388498" lng="13.028688" name="Zeppelinstraße/Kastanienallee" spot="1" number="5256" bikes="1" free_racks="0" terminal_type="free" bike_numbers='33142' bike_types='{"14":1}' place_type="0" ><bike number="33142" bike_type="14" lock_types='analog_code_lock' active="1" state="ok" /></place><place uid="3893976" lat="52.431868361154" lng="13.053994774818" name="Campus Jungfernsee" spot="1" number="522